Amenity Type,Name,Latitude,Longitude
bar,jyoti,26.0703601,83.1808583
bar,Lassi,25.4299814,81.8610072
bar,Beer “Bar”,25.3088759,82.9993278
bar,Beer Bar,25.3092532,83.0026692
bar,Sol Bar,25.3387221,82.980089
bar,Molecule - Varanasi,25.3035592,82.9761299
bar,Yelchiko Bar and Restaurant,25.3095133,82.9897179
bar,pravin bar,25.4583316,81.8639091
bar,aashish,25.4548525,81.8619289
bar,raju internationals,25.4571147,81.8656686
bar,beer bar mosowo,25.4492569,81.8578098
bar,Barcode,25.4550626,81.8349598
bar,CHEM DEPT BAR,25.2614529,82.9906851
cafe,Open Hand Shop and Café,25.2880028,83.0046032
cafe,Buddhu Tea Stall,26.5569604,82.6562059
cafe,Raees Tea Stall,26.5574714,82.6569801
cafe,Blue Lassi Shop,25.3123734,83.0113542
cafe,Niyati Cafe,25.3081571,83.0101627
cafe,cyber cafe,25.4389955,81.8585493
cafe,Maitri Jalpan Grih,25.2712044,82.9930809
cafe,Shiva cafe & German bakery,25.30266,83.00726
cafe,Ayyar's Cafè,25.3089017,83.007494
cafe,The Mark’s Café,25.2881479,83.0044397
cafe,Ashish’ Café,25.2894538,83.0061725
cafe,Dosa Cafe,25.3084503,83.0103322
cafe,Shiva restaurant,25.2884351,83.0038522
cafe,jungle canteen,25.4943395,81.8624154
cafe,Nirman cafe,25.2784608,83.0055163
cafe,Vishnu Tea Emporium,25.3082151,83.010145
cafe,CAFE,25.2830628,83.0036434
cafe,IIT Cafeteria,25.2604996,82.9914058
cafe,Varanasi cafe & restaurant,25.3091913,83.0118591
cafe,कशी कैफ़े,25.2881316,83.0049416
cafe,लूसी'स हेरिटेज कैफ़े,25.3033262,83.0082942
cafe,The Dirty Chai Cafe,25.3062179,83.0090205
cafe,Kalika Dhaba,25.288114,83.0016205
cafe,Lucy's Cafe,25.3035255,83.0081913
cafe,Lucy's heritage cafe,25.303328,83.0083173
cafe,Teaquila,25.2877021,83.0066154
cafe,The Chocolate Heaven,25.2935693,83.0021214
cafe,SHIVAM CAFE,25.4540569,81.8673507
cafe,sanam cafe,25.4554516,81.8633732
cafe,amitabh cafe,25.4515721,81.8720321
cafe,star world cafe,25.4517357,81.8723434
cafe,nilgiri cafe,25.4506044,81.8737826
cafe,prayagraj cafe,25.4456327,81.8830037
cafe,murli ram,25.4485167,81.8616121
cafe,nescafe,25.4483036,81.8583077
cafe,CAFE 96,25.4921714,81.8645434
cafe,Bowl of compassion,25.305784,83.0072379
cafe,Old School Cafe,25.4547275,81.8334642
cafe,Coffee Machine,25.4571116,81.8352448
cafe,Cafe Coffee Day,25.4524789,81.8369485
cafe,Parinda Cafe,25.4065675,81.8679108
cafe,Banarasi Chai Wala (Drinks ka daddy),25.2634417,82.9817728
cafe,CCD,25.2584148,82.9867973
cafe,Dg  Corner,25.2631534,82.9867534
cafe,banaarsi paan shop,25.2635427,82.9816794
cafe,COLD COFFEE,25.2656454,82.9888228
cafe,canteeen 1,25.2639917,82.9841062
cafe,sn bose  canteen,25.2635531,82.9837997
cafe,DG2 canteen,25.2635827,82.985313
cafe,SUVISTO SHAKES,25.46223,81.8408364
cafe,MAHI CAFE,25.463838,81.859026
cafe,CANTEEN2,25.2640003,82.9842197
cafe,ROMAS CAFE DINNER,25.2813597,83.0032837
cafe,chachi tea,25.2634197,82.9817711
cafe,Pradeep Cafe,26.3117434,82.7330267
cafe,Kashirajchai,25.2604362,82.9816157
cafe,EC CAFE,25.2630879,82.9904318
cafe,NOIVE CAFE,25.2631635,82.9848995
cafe,JUICE CORNER,25.2630437,82.9832607
cafe,Chai Sutta Bar,26.2533939,82.0709106
cafe,Rasna Buzz,25.4554364,81.8346715
cafe,Starbucks,25.4526592,81.8340924
fast_food,McDonald's,25.4504642,81.8363247
fast_food,Softy Corner,25.4500252,81.8346828
fast_food,Tuck In,25.454238,81.834923
fast_food,Maurya Food shop,25.4638906,81.8685714
fast_food,Domino's,25.2972961,83.0010019
fast_food,Bikanervala,25.2974007,83.0012414
fast_food,kabab roll,25.4395737,81.8601102
fast_food,kinara cafe,25.4308661,81.8696222
fast_food,Nonsense fast food,25.2962842,83.0001463
fast_food,Night Food Market,25.4509157,81.8738052
fast_food,Madhu Sagar,25.2890288,83.0037725
fast_food,The Belgian Waffle,25.2996052,83.0012047
fast_food,Maa Laxmi Dosa Corner,25.3067302,83.0093202
fast_food,McDonald's,25.3356916,82.9778522
fast_food,Burger King,25.3359581,82.9771432
fast_food,KFC,25.4494547,81.8396055
fast_food,Maharaja Fast Food,25.2800039,83.0030463
fast_food,Pahalwan Lassi,25.2820758,83.0032302
fast_food,"Fulki, Golgapaa to eat",25.343571,82.996155
fast_food,Mukhtar Chicken shop,25.3375274,82.9961847
fast_food,KFC,25.3119632,82.9883947
fast_food,Burger King,25.3164264,82.9897151
fast_food,Domino's,25.3165126,82.9900488
fast_food,McDonald's,25.3166111,82.9901884
fast_food,Keventers,25.2909115,83.0016358
fast_food,bablu ka burger,25.4562764,81.8719369
fast_food,shivam dhaba,25.4546405,81.8748663
fast_food,manan k samose,25.4555483,81.8736007
fast_food,vivek,25.4560368,81.8637866
fast_food,akhil food,25.4516574,81.873604
fast_food,ashwin khana,25.451503,81.8740761
fast_food,aradhana pizza,25.4501805,81.8746119
fast_food,agnus,25.4644911,81.8497076
fast_food,F1  FOOD CORNER,25.4631397,81.8514024
fast_food,chinese special,25.4499854,81.8594878
fast_food,MAN LUBHAVNI,25.4571872,81.8562956
fast_food,Burger King,25.4547575,81.8348243
fast_food,Kamdhenu Sweets,25.45035,81.8323071
fast_food,Kushwaha Sweets And Namkeen,25.4016604,81.8692986
fast_food,Banarasi Chaat Bhandar,25.4518973,81.8349147
fast_food,Domino's,25.4499169,81.8342057
fast_food,Hari Ram & Sons,25.436335,81.8340632
fast_food,Shri Radhe Ras Kunj Sweet House,25.4364805,81.8340787
fast_food,Burger Games,25.3986363,81.8740825
fast_food,Amul,25.3985122,81.874378
fast_food,Domino's,25.4558061,81.8354896
fast_food,Pawan Namkeen,25.4364995,81.8409951
fast_food,Sulaki Lal Sri Nath & Sons,25.4364808,81.8410678
fast_food,Kamdhenu Confectionary,25.4530143,81.8367566
fast_food,Belgian Waffle Co,25.4525146,81.836957
fast_food,LC,25.2609084,82.9869136
fast_food,AGGRAHRI FAST FOOD,25.3797685,81.8461126
fast_food,Raj Sweets Shop,25.4646157,81.8665323
fast_food,DEENA NATH CORNER,25.4641834,81.8653992
fast_food,Banarasi Sweets,25.3940224,81.8609955
fast_food,Nirala Sweet House,25.4368027,81.8228033
fast_food,Pehelwan Juice Corner,25.4520481,81.8351929
fast_food,sonam fast food,26.3510197,82.2292754
fast_food,juice,25.2630278,82.9833066
fast_food,Pizza Club,25.2626622,82.9816188
fast_food,Shree Bakers,25.2622119,82.9816507
fast_food,sanjay chicken shop,25.2643405,82.9816314
fast_food,dr juice bar,25.3665042,82.9302561
fast_food,Deepak Fast Food Corner,26.2753346,82.4711766
fast_food,LC CORNER,25.2606031,82.9869929
fast_food,LC CORNER,25.2607979,82.9869582
fast_food,Rajendra chaat Corner,26.275178,82.4711322
fast_food,Nirvana Foods,25.46547,81.8715912
fast_food,Abhi fast food corner,25.4638403,81.8655001
fast_food,SATWICK MESS,25.2616513,82.9840876
fast_food,Mochu Maggie Point,25.2629379,82.9817425
fast_food,SANTOSH FAST FOOD CORNER,25.2628297,82.9817641
fast_food,Bangs restaurant,25.2611611,82.9816341
fast_food,Vaishnavi Fast food,26.3117913,82.7310086
fast_food,anu food,26.315143,82.7329784
fast_food,Jai,26.313073,82.7366084
fast_food,Gulab Juice,25.2594391,82.9816215
fast_food,KFC,25.3357086,82.9774995
fast_food,Sagar Fast Food,25.2590436,82.9813285
fast_food,raja fast,26.315057,82.7369626
fast_food,masala fast food,26.315024,82.7399212
fast_food,FAST FOOD JUNCTION,25.2606102,82.9915022
fast_food,Subway,25.4555766,81.8340272
fast_food,La Pino's Pizza,25.4555771,81.8340099
fast_food,Pahalwan Juice Stuff,25.4320255,81.8224764
food_court,Food Court,25.3358667,82.9771484
food_court,Momo Time,25.340922,82.996684
food_court,Gitanjali Fast Food corner,25.3482585,82.9941681
food_court,Ak fast food,25.3739415,82.9179851
food_court,om thandhai ghar,25.3736304,82.9188606
food_court,360 Degree dining,25.3683573,82.9275623
food_court,sanzha chulha,25.3695226,82.9255995
food_court,VISHWA CANTEN,25.2620444,82.9838058
food_court,SATWIK MMESS Q,25.2616233,82.9841298
food_court,NEW GIRLS HOSTEL CANTEEN,25.2611439,82.9838851
ice_cream,Night Food Market,25.4510376,81.8737839
ice_cream,Ice cream shop,25.3437312,82.9957353
ice_cream,Rita Ice Cream Parlour,25.3255573,82.9925476
ice_cream,Baskin-Robbins,25.2904822,83.0018331
ice_cream,Amul Ice Cream Parlour,25.3040409,82.9771752
ice_cream,Lovely Icecream,26.2746039,82.472006
ice_cream,Robin & Baskin,25.4546929,81.8344152
restaurant,Chatni,25.2941407,83.0050673
restaurant,Marwadi Bhojanalay,25.311842,83.0109213
restaurant,Phulwari Restaurant,25.3099636,83.0071967
restaurant,Pizzeria Vaatika,25.289353,83.0060414
restaurant,Karki's Restaurant,25.2882184,83.0053907
restaurant,Kerala Cafe,25.2997186,83.001183
restaurant,I:ba,25.2963844,83.0038952
restaurant,Madhu Bahar,25.2886758,83.0039218
restaurant,Star Hotel,25.3084967,83.009266
restaurant,Madhur Milan Cafe,25.3085405,83.0097158
restaurant,Hot Stuff,25.4527005,81.8346442
restaurant,SAGAR RATNA,25.4572438,81.8600908
restaurant,Bridges Restaurant,25.4539899,81.8348188
restaurant,SHRI Guest House,25.3069623,83.0098553
restaurant,Spicy Bites,25.3051585,83.0081148
restaurant,Apex,25.3089237,83.0121258
restaurant,JIOM Resturnt,26.3073222,83.0722656
restaurant,Gokul,26.6245265,83.3836093
restaurant,Ganpati,25.309108,83.0122192
restaurant,kanjurmarg,26.0698073,83.1809162
restaurant,gopals,26.0699991,83.1809873
restaurant,New Baba,25.3049914,83.008162
restaurant,The Keshari,25.3092903,83.0076598
restaurant,Ganga Fuji,25.3096482,83.0109745
restaurant,Megu Cafe,25.3103371,83.0098353
restaurant,Shiva Restaurant,25.2884268,83.0038878
restaurant,Midway Treat Restaurant,24.9230633,81.6863035
restaurant,Shree Café,25.3079671,83.0100512
restaurant,Nepali,25.3083577,83.0096147
restaurant,Banarasi Tadka,25.29116,83.0043433
restaurant,Kashi Chat,25.309354,83.0062499
restaurant,Roma's Cafe Diner,25.2812969,83.0031147
restaurant,Salt & Pepper Food Hun,25.2941027,83.0047932
restaurant,Royal,25.3347023,82.9798741
restaurant,Shakti dhaba,25.2965602,82.4048177
restaurant,Aum Cafe - Organic Food 10/10!,25.289363,83.0056019
restaurant,Kapachino,25.3042274,83.0075314
restaurant,Raga cafe,25.31117,83.0134979
restaurant,Everest Cafe Momo Corner Restaurant,25.2968027,83.0070471
restaurant,Itihaas-Alley Restaurant,25.2883186,83.0042819
restaurant,Angeethee Resturant,25.2872587,83.005015
restaurant,Night Food Market,25.4513777,81.8738372
restaurant,BBC restaurant and hotel,25.2787574,83.0025286
restaurant,Prayag Dhaba,25.4244733,81.9549917
restaurant,Dolphin Restaurant,25.3081958,83.0111787
restaurant,Sha,25.3133005,83.0046481
restaurant,Carvaan Cafe & Restaurant,25.2881951,83.0052254
restaurant,Deena Chat Bhandar,25.3090691,83.0023133
restaurant,Hangout,25.293813,83.0000413
restaurant,Kerala Ganges,25.3087471,83.0115043
restaurant,Rahi Restaurant,25.4247331,81.9560108
restaurant,Canton Royale Restaurant,25.3390821,82.979916
restaurant,Sagar Ratna,25.2813819,83.0032224
restaurant,Bindass Restaurant,25.2623493,82.981643
restaurant,Sri Annapurna Restaurent,25.3099294,82.9887763
restaurant,Pind Baluchi,25.3089162,82.9909262
restaurant,Pink - The Colour Cafe,25.3089194,82.9909466
restaurant,Kasora Restaurant,25.3010722,82.9558356
restaurant,Chicago Pizza,25.3006423,82.9692811
restaurant,Bengal Sweet House,25.284004,82.9693379
restaurant,Rasna Family Restaurant,25.3070834,82.9919506
restaurant,Kovil Restaurant,25.3119674,82.9867677
restaurant,The Yellow Chilli,25.3055163,82.9810198
restaurant,Ambrosia,25.2777473,82.9672239
restaurant,Mehfil,25.2866939,83.0017022
restaurant,Banaras Sweet House and Bhojanalaya,25.2789746,82.9987794
restaurant,Capsicum,25.2802842,83.0026685
restaurant,VNS Live Studio,25.3182588,82.9916193
restaurant,Wife on Leave,25.3211342,82.9911781
restaurant,Machan,25.2877642,82.9692105
restaurant,The Taste Factory,25.3058219,82.9859362
restaurant,Ksheer Sagar,25.3113365,82.9892046
restaurant,Crystal Bowl,25.2903842,83.0018114
restaurant,Ksheer Sagar,25.2932557,83.0024791
restaurant,Parthos,25.305214,82.9792966
restaurant,Ksheer Sagar,25.3161738,82.9678179
restaurant,ajay dhaba,25.4555483,81.8746979
restaurant,shaloo foods,25.4561013,81.8710948
restaurant,sheenu chaat,25.4571289,81.8736109
restaurant,juli restaraunt,25.4512381,81.8726547
restaurant,Bhagirathi Food Plaza,25.2893311,82.9694725
restaurant,shkib,25.4568659,81.8651072
restaurant,sagar ratna,25.448168,81.8612474
restaurant,maharani  zayka,25.4498963,81.8626464
restaurant,balaji,25.4587024,81.8568297
restaurant,ramada,25.458673,81.8587279
restaurant,kahna shyam,25.4565644,81.8598892
restaurant,Banaras Sweet House,25.2691284,82.9826179
restaurant,Singh's Delight Restaurant,25.26154,82.9814667
restaurant,Subway Varanasi,25.2947217,83.0001728
restaurant,Ice dew ice cream,25.2950226,83.0005599
restaurant,The Arabic Cafe,25.2949796,83.0006753
restaurant,Nonsense Fast Food,25.2965454,82.9991854
restaurant,breakfast centre,25.0182224,82.3601259
restaurant,Forty Wings,25.4033317,81.8682416
restaurant,Kadir Sweets,25.4029389,81.8691933
restaurant,Shaam Restaurant,25.4071555,81.8674795
restaurant,Alveena Food City,25.4012194,81.8689299
restaurant,Sethi Punjabi Dhaba,25.3907765,81.8627541
restaurant,Pizza Hut,25.4505795,81.8304807
restaurant,Tandoor,25.450402,81.8315022
restaurant,Busybee,25.4026598,81.8686437
restaurant,Higgins IX CI,25.4110742,81.8429396
restaurant,Habib Hotel,25.3990652,81.8632979
restaurant,Mishthi,25.3997775,81.8670336
restaurant,BIKANER,25.451436,81.8324604
restaurant,Pizza Hut,25.4559442,81.8355087
restaurant,शिवांगी लंच हाउस,25.3053215,82.9925403
restaurant,Shanti Restaurant,25.3048518,83.0077197
restaurant,Jyoti Cafe,25.3056593,83.0086228
restaurant,Rustic Kitchen,25.4571074,81.8352164
restaurant,Curry Leaf,25.455148,81.8374386
restaurant,Kailash Parbat,25.4519558,81.8349982
restaurant,CHICAGO PIZZA,25.4520503,81.8352836
restaurant,Royal Castle,25.4065503,81.8679293
restaurant,New Zaika,25.4025606,81.8695416
restaurant,Al Zaika,25.4023521,81.8695444
restaurant,Mustfa Chicken Biryani,25.4029997,81.8692041
restaurant,AM 2 PM Restaurant,25.2595214,82.9815196
restaurant,Relish Scoop Bar and Cafe,25.2634152,82.9817206
restaurant,Clock Tower,26.2753215,82.4711415
restaurant,Underground Cafe,26.2752273,82.4714497
restaurant,Abhisek Fastfood Corner,26.2714313,82.4679498
restaurant,Cimaya,25.2638528,82.9815187
restaurant,kavyanjali sweet house,25.2635938,82.9816088
restaurant,sheik chill small shop,25.2635759,82.9816356
restaurant,foodie friend's,25.2649386,82.9817699
restaurant,NH 56 hotel,25.3546362,82.9656729
restaurant,sagar bhojanalay,25.3547741,82.9660329
restaurant,dosa crush,25.354618,82.966059
restaurant,mahadev nariyal pani,25.3546448,82.9655978
restaurant,new lucknow biryani,25.3545406,82.9660654
restaurant,KVS (food court),25.2636939,82.9815272
restaurant,Ratnasagar,25.4642037,81.8697354
restaurant,Hot Pizza Ace,25.4633995,81.8649332
restaurant,Anjali Restaurant,25.4623529,81.8663355
restaurant,champaran meat house,25.2635514,82.98166
restaurant,Sangam Bhauri Chokha Corner,26.2713297,82.4674623
restaurant,jaiswal dosa,25.4463673,81.8521893
restaurant,Kashi Restaurant,25.27994,82.9922718
restaurant,Paprika Food Court,25.2796698,83.0030165
restaurant,Sunbeam Bhagwanpur Canteen,25.2732741,83.0013881
restaurant,Banarsi Biryani,25.2894898,83.0013967
restaurant,Chicken Shwawarma Wala,25.2894782,83.0013667
restaurant,Aman-e-Khas,25.2970064,83.0023604
restaurant,Western Street n Cafe,25.2881654,83.001401
restaurant,Champaran Meat House,25.28839,83.0017394
restaurant,Waah Mumbai!,25.2911695,83.0013304
restaurant,Lucky Restaurent,26.3131277,82.7334572
restaurant,Anu food,26.3126076,82.7416851
restaurant,Raj bhojnalya,26.3091471,82.7429973
restaurant,G,26.3117197,82.7337101
restaurant,Nate Bhoj,26.309185,82.7426841
restaurant,Anand food,26.3132223,82.7350224
restaurant,Tasty foody,26.3128732,82.7391876
restaurant,AM2PM RESTAURANT,25.2602834,82.9815127
restaurant,*,26.3146034,82.7347176
restaurant,masti,26.3150284,82.7426925
restaurant,Raju Dhaba,26.3141557,82.7391961
restaurant,Masala Restaurent,26.3134044,82.7376214
restaurant,Yadav restaurent,26.310164,82.7368172
restaurant,Lata food,26.3078873,82.7368764
restaurant,Swadistya,26.3088435,82.7380955
restaurant,YUM,26.308206,82.7408724
restaurant,Popular Bati Chokha,25.3115714,82.9877375
restaurant,Pizza Hut,25.3357406,82.9776527
restaurant,Barbeque Nation,25.3356607,82.97747
restaurant,EC RESTURANT 2,25.2629243,82.99085
restaurant,NEW CAFE AND RESTURANT,25.2606975,82.9914443
restaurant,Awantika Restaurant,26.2654591,82.0733727
restaurant,La pino'z pizza,26.2641184,82.0744097
restaurant,Shrvn Bati Choke,26.2632883,82.0713928
restaurant,Khawaza fire works,26.2609116,82.0731751
restaurant,Rahul Special Momos,26.2640745,82.0740397
restaurant,Janta restaurant,26.2754207,82.0775066
restaurant,Mela Restaurant,25.451402,81.8348756
restaurant,Dhaba Special,25.2666213,82.4916082
restaurant,Fika,25.4492806,81.8396079
restaurant,The Indian Food Plaza,25.3921262,81.8637123
restaurant,Haldiram Bhujiawala,25.4555439,81.8341134
restaurant,William John's Pizza,25.4552933,81.8350288
restaurant,CAFÉ 60 FEET,25.4310062,81.8035913
restaurant,Luv Kush,25.2998813,83.0022412
restaurant,Sol Cafe by Mark's Cafe-Diner,25.3033865,83.0082679
restaurant,Baba Dhaba And Restaurant,25.3557289,81.8345556
restaurant,Muktanand Restaurant,25.4520214,81.8325737
restaurant,Pind Balluchi,25.4523915,81.8329197
restaurant,Basu's Kitchen,25.4556441,81.8356801
restaurant,Aryan,25.454654,81.8348355
college,MM PG College,26.3070818,83.0795827
college,GDBinani PG College Mirzapur,25.1347712,82.5837674
college,Mahabodhi International College,25.3783973,83.0284798
college,ECC,25.4278749,81.845574
college,Jamuna christian Inter College,25.4269006,81.8424545
college,Banaras Hindu University (BHU) Rajiv Gandhi South Campus,25.0474623,82.5955628
college,St Anthony Inter College,25.9220681,81.9871872
college,KP Hindu Inter College,25.9245794,81.9958664
college,DAV Inter College,25.9153964,81.9857777
college,IshawarDeen chhedilal Inter College,25.2824656,81.7837182
college,संपूर्णानंद संस्कृत विश्वविद्यालय,25.3303886,82.9978847
college,Chhatrapati Sahu Ji Maharaj Government Polytechnic,26.4618757,82.4899247
college,Government Polytechnic Baijpur Bhiti,26.4413875,82.4677355
college,Dev Indravati PG Collage,26.3838773,82.5193776
college,HCPG COLLEGE,25.3198258,83.0123819
college,school,25.3167154,82.9760693
college,Tulsi Niketan Balika inter college,25.3450274,82.9938601
college,Satyawati Degree College,26.4225938,82.4032429
college,Mahamaya College of Agricultural Engineering & Technology,26.4590776,82.4927909
college,Dr.A.P.J. Abdul Kalam Polytechnic College,25.4021586,81.8661369
college,har har mahadev mahila mahavidhalay,25.2036864,83.0722071
college,Rajputana Ground,25.2623596,82.985774
college,kashi krishak inter college,25.3746276,82.915698
college,MNNIT FIELD,25.4934602,81.8659358
college,AU CRICKET GROUND,25.460677,81.8507455
college,AU HOCKEY FIELD,25.45912,81.8516844
college,AU FOOTBALL GROUND,25.459239,81.8508497
college,KPUC GATE,25.463824,81.860378
college,HERITAGE COLLEGE OF NURSING,25.2782809,83.00408
college,Radiant College,26.3111095,82.732286
college,United Institute of Medical Sciences,25.397572,81.757321
kindergarten,SP Memorial Primary School,25.46388,81.863747
kindergarten,Fancier Kids,25.2872422,83.0042721
library,साइबर लाइब्रेरी,25.2689057,82.9930785
library,Prakhar Library,25.4634204,81.8694258
library,Vinayak Digital Library,25.4624131,81.8660854
library,Vivekananda Library,26.3143395,82.7422626
library,Study IQ,26.3069148,82.7371449
library,Focus,26.3145414,82.7328641
library,Vinaayak Mehta Library,26.2642691,82.0750796
library,GIC LIBRARY,26.2635463,82.0717077
research_institute,J C BOSE RESEARCH INSTITUTE,25.4575978,81.857252
training,Krishna Coaching Institute,25.4653342,81.8617836
school,High School,25.4297882,83.6153342
school,sun rise public school,25.4287613,83.6200754
school,Avadh Public School,26.5586229,82.6545141
school,Poorva Madhyamik Vidyalaya,26.0117004,82.6200762
school,Bal Shiksha Niketan,26.5529657,82.656186
school,VIDDESWAR ACADMY,26.2653894,82.6694487
school,public shool,25.2903508,83.0047674
school,mahila sewa sadan inter college,25.4392297,81.8598465
school,G C STUDY POINT,25.4427989,81.8606813
school,Shaharyar Beg Inter College,26.6031814,82.5497856
school,Primary School,25.3988181,81.8624972
school,Jagat Taran Golden Jubilee School,25.4539878,81.8589719
school,Martha Root Montessori School,25.3361135,82.9764097
school,Sarswan Middle School,26.2547775,82.4913004
school,Sarswan Primary School,26.2506935,82.4888657
school,Ram Baran Singh Mahila Maha Vidyalaya,26.2652428,82.4900412
school,Swarg. Raj Singh Inter Collage (Janta Inter Collage),26.2100234,82.2161681
school,primary School,26.3680777,82.5120575
school,St. Thomas School Gyanpur,25.3416207,82.4801506
school,Prathmik Shiksha Kendra,26.4437242,82.4600858
school,ज्ञानदीप अकादमी,25.2674852,82.965968
school,Oxford street convent school,25.3429537,82.9966609
school,Little lions school,25.3426135,82.9977301
school,J R S Coaching,25.3451685,82.9939255
school,Saraswati Shishu Mandir,25.4232958,81.8231352
school,MQ Islamic School,25.4241104,81.8052668
school,ML CONVENT SCHOOL,25.4556312,81.8777388
school,Nice Computer Education,25.2883613,82.9697871
school,mpvm,25.4497955,81.8600114
school,j.c bose institue,25.4576206,81.8569272
school,St. Mary's Convent Inter College,25.4575978,81.8455433
school,कैटजी,25.3043355,82.9788384
school,Majidia Islamia Inter College,25.4295784,81.8263182
school,Atheletics ground,25.3768568,81.8526759
school,kho kho ground,25.3777098,81.8532124
school,assembly ground,25.3772445,81.852971
school,KENDRIYA VIDYALAYA COD CHHEOKI PRAYAGRAJ,25.3773996,81.8527081
school,Colony ground,25.3759407,81.8515279
school,PLAYING GROUND,25.3794086,81.8446829
school,LAKSHYA COACHING CLASSES,25.3779388,81.8441505
school,AKSH COACHING CLASSES,25.3787482,81.8446038
school,Primary school,26.5418937,82.409823
school,Abhay mahavidyalaya,25.3699506,82.9171311
school,Sant Atulanand Convent School,25.3704954,82.9183193
school,the pathshala school,25.3624052,82.9325662
school,basant balika govt school,25.3625245,82.9373073
school,sant atulanand  convent school,25.3535677,82.9659655
school,jaipuria school,25.3625149,82.9369225
school,upsc exam ankit NvS SNY ji,25.3622599,82.9373831
school,abacus n abacus,25.3541058,82.9667212
school,the sunnrise school,25.3547101,82.9669677
school,Scholar's Home Bal Siksha Sansthan,26.2732341,82.4698801
school,ASSEMBLY GROUND,25.4625916,81.8405524
school,HOLY TRINITY SCHOOL ALLAHABAD,25.4620292,81.8614059
school,GD PUBLIC SCHOOL,25.4652799,81.8617506
school,Sunbeam Bhagwanpur Grounds,25.2731346,83.001598
school,C.A.V. Inter College,25.4485955,81.8449649
school,Cricket Ground,25.4477174,81.8444478
school,Narendra Inter college,26.3088283,82.7333133
school,DD Central,26.3087999,82.7339906
school,RUNNING GROUND,25.2585849,82.9896612
school,Saraybhogi primary school,25.7712723,82.3290009
school,Bethel Academy School,25.3613416,81.8387521
university,NIELIT Gorakhpur,26.7285652,83.4342065
university,Mechanical Workshop,26.7297498,83.4350798
university,United University,25.3957121,81.7583556
university,Indian Institute of Technology (BHU),25.2621544,82.9925896
university,ALLAHABAD UNIVERSITY,25.4649427,81.8603052
university,DIAMOND JUBILEE HOSTEL GROUND,25.4624693,81.8592971
university,UNIVERSITY PARK,25.4653472,81.8606365
university,GYMKHANA GROUND,25.2586098,82.9902383
university,NAKLI GROUND,25.2583127,82.990765
vehicle_inspection,Mahindra Raj India Auto - SUV and Commercial ....,25.3746904,82.9163029
vehicle_inspection,RAJ INDIA PVT LTD mahindra workshop,25.3747417,82.916235
ferry_terminal,Dasaswamedh Ghat,25.3063243,83.0103739
ferry_terminal,Ramnagar,25.2718076,83.0229253
fuel,Indian Oil,25.9283187,83.5711021
fuel,Indian Oil,25.9348177,83.5669181
fuel,Indian Oil,25.9633105,83.5803692
fuel,Indian Oil,25.5417224,83.2665963
fuel,Indian Oil,25.5449342,83.3304886
fuel,Indian Oil,25.5459651,83.3768475
fuel,HP,25.567077,83.4707863
fuel,Bharat Petrolium,25.5786498,83.5035431
fuel,Indian Oil,25.5783509,83.5573436
fuel,Bharat Petrolium,25.6283152,83.5661881
fuel,IBP,25.6796435,83.5485398
fuel,Indian Oil,25.7293344,83.5458034
fuel,IBP,25.7706176,83.5536783
fuel,Indian Oil,25.8325808,83.5579199
fuel,NRL,25.8909632,83.560484
fuel,Indian Oil,25.8987875,83.5611688
fuel,Indian Oil,25.4637202,83.1183409
fuel,Indian Oil,25.5408428,83.1870583
fuel,Indian Oil,25.5403315,83.211525
fuel,IBP,25.540783,83.2205785
fuel,Bharat Petrolium,25.4478976,83.0312858
fuel,Bharat Petrolium,25.9438383,83.5689208
fuel,Shakuntala Filling Station,25.1737096,83.0991292
fuel,Indian Oil Petrol Pump,25.3050048,82.9811121
fuel,Indian Oil,25.2977678,83.0020662
fuel,Indian Oil,25.3117109,82.9885717
fuel,Binarat Petroleum,25.3111057,82.9888223
fuel,HP,25.3183391,82.9881765
fuel,indian oil,25.4388788,81.8582634
fuel,Petrol Station,26.3778686,82.8631138
fuel,Indian Oil (Bihar Oil Agency),25.1334272,83.665899
fuel,तेलियरगंज पेट्रोल पंप,25.4982624,81.8628931
fuel,Essar,25.4183563,82.0160124
fuel,Indian Oil,26.3658473,82.5107809
fuel,Petrol Pump,25.2848795,83.0023419
fuel,Petrol Pump,25.2774869,83.005451
fuel,Indian Oil Petrol Pump,25.2941304,83.0000956
fuel,Indian Oil,25.3454544,82.9941786
fuel,Indian Oil Petrol Pump,25.1509743,82.3388427
fuel,HP petrol pump,26.6009244,81.9195413
fuel,Essar Petrol Pump,25.3010041,82.9542855
fuel,Bharat Petroleum,25.2833874,82.9754984
fuel,Vijay,25.7867525,82.2316079
fuel,Indian Oil Petrol Pump,25.2484958,82.9623644
fuel,Indian Oil Petrol Pump,25.267544,82.9946423
fuel,GAYATRI,25.3776359,81.8447178
fuel,सरस्वती पेट्रोल पंप एवं सी.एन.जी. फीलिंग,25.2672101,82.9660906
fuel,Indian Oil,25.3683821,82.9279175
fuel,GHANSHYAM PETROL PUMP,25.3510857,82.2285834
fuel,INDIAN OIL,25.3405993,82.2541342
fuel,Bharat Petroleum,25.2802163,82.9874745
fuel,Indian Oil,25.2835546,82.9721273
fuel,HP Petrol Pump Sarju Prasad Sarju Prasad Mahabir Prasad,26.2651535,82.0725631
fuel,Bharat Petroleum,25.442863,81.8670851
taxi,Rajesultanpur Taxi Stand,26.3042343,83.0795069
taxi,Shared tuk tuk to Varanasi Jct (Cantt) Station,25.3093104,83.003472
taxi,AUTO STAND,25.2653598,82.9898452
taxi,SATISH DHAWAN CYCLE SATND,25.2637613,82.9841309
atm,State Bank of India,25.3000645,82.9729878
atm,SBI ATM,25.465973,81.86197
atm,PNB ATM,25.466971,81.862945
atm,SBI ATM,25.461064,81.826185
atm,SBI ATM,26.3070093,83.0766621
atm,State Bank ATM,25.309149,83.0067144
atm,State Bank of India,25.3172234,82.9911145
atm,ICICI Bank,25.3386245,82.981759
atm,HDFC Bank,25.338642,82.9817789
atm,State Bank of India,25.3453057,82.9941765
atm,State Bank of India,25.3456489,82.9941807
atm,State Bank of India,25.351358,82.9935332
atm,Bank of India ATM,25.3093898,83.0030173
atm,Punjab National Bank,25.3900038,81.8634397
atm,HDFC Bank,25.4016688,81.8693103
atm,State Bank of India,25.4017337,81.8693735
atm,HDFC Bank,25.4020271,81.8697262
atm,State Bank of India,25.401167,81.8684867
atm,INDIAN BANK ZONAL OFFICE,25.4570374,81.8352544
atm,SBI ATM,25.3769574,81.8488699
atm,Punjab National ATM,25.4646294,81.870656
atm,Union Bank Of India Atm,25.2606833,82.9816495
atm,Punjab national bank,25.2608874,82.9816249
bank,HDFC Bank,25.9269104,83.5661857
bank,State Bank of India,25.9300451,83.5666861
bank,Punjab National Bank,25.4622069,81.8563931
bank,Axis Bank,25.4510273,81.8304552
bank,Allahabad Bank,25.4620946,81.8653888
bank,State Bank of India,25.4619518,81.8459346
bank,State Bank of India,25.4657182,81.8569019
bank,UBI,26.2932522,83.0925814
bank,Bank of Baroda,25.4389773,81.8582096
bank,State Bank of India,25.3172343,82.991197
bank,VIJAYA BANK,25.4920966,81.8648709
bank,State Bank of India,25.4303516,81.8289879
bank,Punjab National Bank,25.4302684,81.8282172
bank,भारतीय स्टेट बैंक,25.4947383,81.8621768
bank,Union Bank,25.3380613,82.9804377
bank,Bank of Baroda,25.4096906,81.9108845
bank,State Bank of India,25.2593349,82.9934338
bank,Punjab National Bank,25.2767178,82.9877373
bank,Bank of Baroda,25.2778038,82.9989742
bank,Axis Bank,25.281238,83.0032025
bank,Kashi Gomti samyut gramin bank,25.3452467,82.9939213
bank,Allahabad Bank,25.2497947,82.9933808
bank,Punjab National Bank,26.4270799,82.5332629
bank,ICICI Bank,25.4575837,81.835317
bank,Bank of Baroda,25.4684687,81.8563101
bank,ICICI Bank,25.311136,82.9862744
bank,Bank of India,25.3028729,82.9746002
bank,State Bank of India,25.3043984,82.977972
bank,HDFC Bank,25.3071357,82.9908639
bank,Union Bank of India,25.3071065,82.9911615
bank,First IDFC Bank,25.2867485,83.0020165
bank,Bank of Baroda,25.3097717,82.9896733
bank,Bank of Baroda,25.3102527,82.9894139
bank,HDFC Bank,25.3095044,83.0033371
bank,Bank of India,25.3105427,82.9890026
bank,HDFC Bank,25.3112313,82.9891875
bank,State Bank of India,25.284562,82.9597102
bank,State Bank of India,25.3082715,82.9912489
bank,Vijaya Bank,25.3073061,82.9941706
bank,SBI,25.4508371,81.8748722
bank,Allahabad Bank,25.4480711,81.8590286
bank,bank of jhaplu,25.456723,81.8658677
bank,munuwar rana,25.4575064,81.8642422
bank,Bank of Baroda,25.2946849,83.0007772
bank,State Bank of India lalganj branch,25.0190209,82.362836
bank,SBI ATM,25.2874604,82.9444834
bank,BOB ATM,25.2874546,82.9443257
bank,Punjab National Bank,25.390893,81.8635954
bank,Bank of India,25.3907074,81.8636433
bank,HDFC Bank,25.3921424,81.863717
bank,State Bank of India,25.3880304,81.8659736
bank,IDFC First Bank,25.4511585,81.8296072
bank,Central Bank of India,25.4497735,81.8362295
bank,Bank of Baroda,25.4507995,81.8331265
bank,IDFC First Bank,25.4013801,81.8691015
bank,Union Bank of India,25.4378512,81.8405429
bank,Bank of Baroda,25.4380087,81.8407068
bank,AU Small Finance Bank,25.4557056,81.8361265
bank,State Bank of India,25.3768992,81.8489718
bank,Allahabad Bank,25.4720869,81.8682392
bank,ICICI Bank,25.3924517,81.8638002
bank,स्टेट बैंक ऑफ इंडिया,25.2675683,82.9662411
bank,Bank of Baroda,25.392236,81.8637364
bank,Axis bank branch,25.3734307,82.9188949
bank,INDIAN OVERSEAS BANK,25.3711535,82.9225816
bank,State Bank of India,24.9983342,82.075717
bank,ICICI bank,25.3673535,82.928706
bank,union school of india,25.3536914,82.965537
bank,Union Bank of India,25.47131,83.2497737
bank,Punjab National Bank,26.2720615,82.4689125
bank,United Bank Of India,25.4657711,81.8719984
bank,Allahabad Bank,25.4635254,81.8658128
bank,State Bank of India,25.4656341,81.8568128
bank,Shubham Banking Seva Kendra,26.2730429,82.4699582
bank,SBI,26.2703444,82.4690031
bank,Punjab National Bank of Dostpur,26.2702763,82.4692681
bank,STATE BANK OF INDIA,25.4422,81.8837572
bank,State Bank of India,26.3104868,82.7345646
bank,PNB,26.3093032,82.7411386
bank,Maharashtra Bank,26.3098058,82.7345057
bank,Bank of Baroda,26.2639163,82.0742575
bank,City Union Bank,25.4517323,81.832585
bank,HDFC Bank,25.447911,81.8343737
bank,Canara Bank,25.4514279,81.8301846
clinic,The Apolo Clinic,25.3041865,82.9784124
clinic,Bajaj Hospital Diagnosis Services,25.4551349,81.8350008
clinic,gupta medical store,25.4394997,81.8597543
clinic,Ehsaas De-Addiction Cum Rehabilitation Centre,26.7398014,83.3749512
clinic,Agir pour Benares,25.2965543,83.0058046
clinic,"Pooja Nursing Home, Kaimur (Bhabua)",25.2887,83.5278967
clinic,Dr.Awinash Clinic,25.1716198,83.6196336
clinic,Dr. Deepak Agarwal Clinic,25.4549816,81.8574438
clinic,"Dwivedi Medical and Research Center Pvt Ltd,",25.4661464,81.8443251
clinic,Priti Nursing And Maternity Home,25.4502705,81.8590102
clinic,Deep Ganga Clinic,25.4613291,81.8438295
clinic,Bk Nursing Home,25.3901604,82.567336
clinic,Kunwar Das Sewashram Nursing Home,25.735593,82.6994187
clinic,Chinmay Surgical Center,26.6515524,81.9737461
clinic,Ashutosh Maternity And Nursing Home,25.2859572,83.1136657
clinic,Rajhans Nursing Home,25.386875,82.5805774
clinic,Narayan Nursing Home,25.7468347,82.6938939
clinic,Adarsh Clinic and Surgical Center,25.4125248,82.0312985
clinic,Vandna Nursing Home,25.9217757,83.5664709
clinic,Haribandhu Fracture Clinic Pvt Ltd.,25.3502193,83.0226852
clinic,Kalra Nursing Home,25.4266104,81.8268836
clinic,Life Line Medical and Surgical Health Care Center,25.5808248,83.5801274
clinic,City Nursing and Maternity Home,25.4429561,81.828429
clinic,Charu Nursing Home,25.91725,81.9930951
clinic,Dev Nursing Home,25.4633446,81.8484825
clinic,Prema Nursing Home and Shri Hari Surgical Research Centre,26.0286596,83.3883896
clinic,Sardar Nursing Home,26.255524,82.063031
clinic,J.P. Hospital and Surgical Centre,25.2890796,82.9708877
clinic,"Kamala Nursing Home, Varanasi",25.2596764,83.0338507
clinic,"Ashirvad Nursing Home, Chandauli",25.2760437,83.1357282
clinic,Baba Clinic and Nursing Home,25.2620454,83.2630181
clinic,Prince Clinic and Nursing Home,25.3274904,82.9914415
clinic,Santusti Nursing and Surgical Centre,25.3987077,82.5677691
clinic,Maa Sharda Clinic and Nursing Home,26.742639,83.3716097
clinic,Dr. S K Sharma Eye Clinic,26.7412138,83.3686995
clinic,Dr. S.Nath Memorial Eye Clinic Phaco and Laser Centre,25.3230301,83.0010518
clinic,Kalptaru Chikitsalya,25.7454716,82.6816966
clinic,Shiv Surgical Hospital And Medical College,25.3588766,83.0135543
clinic,Nirmal Nursing Home,25.4757592,82.5690023
clinic,Agarwal Nursing Home,25.9217322,83.5680239
clinic,"Rajendra Nursing Home and Dental Clinic, Varanasi",25.354083,82.9825312
clinic,Sangeeta Nursing Home,25.7279201,82.68985
clinic,Vishal Medicare Centre,25.4615794,82.4083479
clinic,Arogyaneer Diagnostic Clinic,25.5931466,82.9993722
clinic,The Fractures Clinic and Trauma Hospital,25.3032363,82.9764466
clinic,Adarsh Nursing Home,25.2833258,82.9730503
clinic,Sneha Nursing Home,26.2668388,83.5054453
clinic,"Rahul Nursing Home, Mau",25.9226106,83.5668521
clinic,Chitwan Surgical Center,26.5847764,82.1976521
clinic,"Samarpan Hospital, Varanasi",25.3507187,82.976228
clinic,"Sri Sai Nursing Home, Varanasi",25.3344185,82.7890876
clinic,Shanti Nursing Home,26.0538456,83.1828117
clinic,Allahabad Nursing Home,25.4654018,81.8332046
clinic,Dr. N D Tahiliani Memorial Clinic And Minimal Inva,25.4680377,81.8243661
clinic,"Chandra Nursing Home, Varanasi",25.3275898,83.0027376
clinic,Arogyam Piyush Clinic,25.3661363,83.006195
clinic,Nandan Ent Clinic,26.7427516,83.3732077
clinic,Dularee Nursing Home,26.7416989,83.3760304
clinic,Shivam Maternity and Nursing Home,25.3530274,82.9819612
clinic,Tandon Multispeciality Hospital and Ishita Modern Eye Care Centre,25.3191944,83.0067299
clinic,Kamla Polyclinic,25.4497628,81.8604552
clinic,Shri Hari Netralaya,25.4546773,81.8513656
clinic,Eye Clinic,25.4384364,81.8394688
clinic,Jijivisha Medicare and Trauma Centre,25.4470887,81.8615844
clinic,Raj Nursing Home,25.2882993,82.4267406
clinic,Kumar Ent and Head and Neck Clinic,25.2780889,83.0032586
clinic,Mangalam Clinic and Trauma Centre,25.3110083,83.0024332
clinic,Annu Nursing Home and Maternity Centre,26.4118646,82.5460989
clinic,Dispensary No.2,25.4642043,81.8264642
clinic,Sharda Polyclinic,26.0467164,83.1970395
clinic,Sachan Nursing Home,25.4509899,81.8619747
clinic,Sah Speciality Clinic,25.2905553,83.0004665
clinic,"Akanksha Nursing Home, Varanasi",25.3118776,82.9877642
clinic,Shail Nursing Home,25.353734,82.9649064
clinic,Umang Nursing Home,25.3518488,82.9822486
clinic,"Yash Nursing Home and Maternity Home, Bhadohi",25.6454714,82.9182591
clinic,Uphar Nursing Home Pvt. Ltd.,25.3046542,82.9803948
clinic,Dua Nursing andMaternity Home,25.4509687,81.7807775
clinic,Khetan Netra Chikitsalya,26.0780998,83.1857863
clinic,Mayocare Heart Clinic,25.4500332,81.7662426
clinic,Ashish Nursing Home,25.9294793,83.5667941
clinic,Sardar Patel Clinic,26.7454607,83.3793117
clinic,"Sanjeevani Nursing Home, Azamgarh",26.0895511,83.1878342
clinic,Raj Ganga Nursing Home,25.9191419,81.9844577
clinic,"Sanjeevani Nursing Home, Varanasi",25.3536867,82.9793367
clinic,Himanshu Hospital and Clinic Pvt Ltd,25.3493104,82.9916064
clinic,Pankaj Chikatsalay,26.0043596,83.112957
clinic,Murti Fracture Clinic,25.2880337,83.1094198
clinic,J.J Clinic and Nursing Home,25.2767719,83.1335617
clinic,Dayal Nursing Home and Maternity Home,25.4495004,81.762112
clinic,Raj Nursing Home,25.455994,81.8527398
clinic,Srijan Poly Clinic,25.3956777,81.8627411
clinic,Vishal Surgical Center,25.3163026,82.9088225
clinic,Om Sai Nath Child Care Centre,26.2844295,83.5124573
clinic,Jeevan Rekha Nursing Home,24.9915414,82.0689514
clinic,Anmol Poly Clinic,25.3600376,83.0653328
clinic,Chiranjiv Nursing Home,25.4413515,81.8650706
clinic,Prakash Nursing Home,26.0532877,83.1812721
clinic,Anurag Maternity and Laparoscopic Center,25.3024243,82.9690787
clinic,M.M. Nursing Home,26.7429588,83.3712517
clinic,Anand Poly clinic and Trauma Centre,25.2845053,82.4361156
clinic,Shailja Nursing Home,25.2573714,83.2764725
clinic,Ram Nath Memorial Nursing Home,25.3697983,82.9726593
clinic,Baby Care Clinic,25.3023578,82.9753549
clinic,Wazirunnisa Mother Care Nursing Home,25.3867334,82.5821934
clinic,Dispensary No.1,25.4782611,81.8606785
clinic,Bps Heart Clinic,25.2824005,82.9906966
clinic,Rudrapriya Clinic,25.2683883,83.0138326
clinic,Dr. Preeti Maternity Clinic,25.425308,81.912422
clinic,Sachan Poly Clinic,25.4839218,81.8769177
clinic,Dr. OP. Singh Clinic,25.4088946,81.9177673
clinic,Alok Mishra Gastro Clinic,25.4541694,81.8603227
clinic,Kamla Memorial Clinic,25.4391012,81.8381289
clinic,ECHS Polyclinic,26.0482847,83.1840446
clinic,Raj Clinic,26.0844709,83.0361054
clinic,Mishra Clinic,24.9265262,82.6758657
clinic,Shahi Neuro Psychiatry Clinic,26.7424394,83.3682212
clinic,Dr.Devmuni Singh Clinic,24.873904,83.0395976
clinic,Apollo Clinic,26.738647,83.367827
clinic,Star Health Care Clinic,26.3445711,83.4138496
clinic,Arthritis Homoeopathic Clinic,25.4559036,81.873128
clinic,Patwardhan Skin Clinic,25.2805137,82.9903301
clinic,DR CHAUHAN EYE CLINIC,25.4004424,81.8678011
clinic,Medi-Kiran,25.4663303,81.830858
clinic,KESARWANI CLINIC,25.3797806,81.8456445
clinic,Ajay Poly Clinic,25.2232689,82.5111671
clinic,Dr. Peeyush Chansouria's Bone Clinic,25.2810451,82.990486
dentist,Prayag Dental Clinic,25.455127,81.841359
dentist,Avon Dental Clinic and Hospital,25.3269832,82.964445
dentist,Rastogi Dental Hospital,25.4581097,81.8382351
dentist,Naini Dental Hospital,25.4012539,81.868973
dentist,Dental Hospital,25.4549389,81.8710772
dentist,Public Dental Hospital,26.0412036,83.1891825
dentist,Prakhar Dental Hospital,26.0774853,83.1853284
dentist,Dentist hospital,25.3428889,82.9964458
dentist,Dental hospital,25.3380641,82.9965272
dentist,Shubham Dental Clinic,25.406536,81.8678942
dentist,Maruti Dental Clinic,25.452133,81.8350271
doctors,dubay clinic,25.4395135,81.8598341
doctors,Dr. Vinod Kumar Maurya,25.3526539,82.9769841
doctors,Bangali Doctor,26.6218178,83.559367
doctors,Center For Sight,25.4558325,81.8345712
hospital,Mata Anandmayee Hosiptal,25.2929029,83.0055074
hospital,Punjabi Hospital,25.3460988,83.0372616
hospital,Sri Narayan Ashram Hospital,25.4969605,81.8684147
hospital,Government Hospital Nandganj,25.5434374,83.4006007
hospital,"Samvedna Hospital, Varanasi",25.2965812,83.0013293
hospital,Priti Hospital,25.4573983,81.8541354
hospital,"Jeevan Jyoti Hospital, Allahabad",25.436294,81.8465893
hospital,Heritage Hospitals Ltd,25.2788877,83.0028725
hospital,"S.R.N. Hospital, M.L. N. Medical College",25.4456103,81.8448926
hospital,"Sanjeevani Hospital, Kaimur (Bhabua)",25.0529472,83.6049874
hospital,"Prakash Hospital, Kaimur (Bhabua)",25.2120479,83.5200848
hospital,"Ranjan Hospital, Kaimur (Bhabua)",25.0402736,83.6076361
hospital,Shakuntla Multi Speciality Hospital,25.4248667,81.9247846
hospital,Bhola Hospital,25.4534639,81.8558676
hospital,Ambedkar Scan Hospital (Pvt.) Ltd.,25.1339452,82.5781942
hospital,Seema Hospital,26.3259352,82.9505861
hospital,Shekhar Hospital and Research Center,25.357457,82.9647079
hospital,Nishant Maternity And Children Hospital,25.3504181,82.9967603
hospital,Sadhana Hospital,26.4398191,82.5485551
hospital,Nisa General and Welfare Hospital,26.0888381,83.2928762
hospital,Karunashray Hospital,26.2629362,82.0750688
hospital,New Yashlok Hospital,26.0794356,83.1869759
hospital,Samarpit Hospital,25.7470184,82.6795542
hospital,Dwarka Hospital,25.437487,81.8450908
hospital,Akash Hospital,25.3848185,82.5858783
hospital,"Parth Hospital, Jaunpur",25.7367334,82.6761398
hospital,Shri Gangaram Memorial Hospital,25.247891,82.9940164
hospital,Zohra Hospital,26.285864,83.5112429
hospital,Rehman Hospital,26.0809991,83.1910971
hospital,Real Reliance Hospital,25.3669118,83.0259106
hospital,Ranjana Hospital,25.4382354,81.8445128
hospital,Ramakrishna Mission Home Of Service,25.3068304,82.9978198
hospital,"Vardan Hospital, Ambedkar Nagar",26.4506262,82.779566
hospital,Nitin Surgical Center,26.4355638,82.5496562
hospital,Singh Medical And Surgical Centre,25.3264652,82.9927117
hospital,"Rama Hospital, Allahabad",25.452294,81.86083
hospital,Sri Ram Janaki Netralaya,26.7426534,83.3697899
hospital,Jamea Hospital,25.3246623,83.0149859
hospital,"Geeta Hospital, Sultanpur",26.2513059,82.0689379
hospital,Surya Super Speciality Hospital,25.3051973,82.9805182
hospital,St Mary Hospital,25.315928,82.9106507
hospital,Guru Kripa Jagriti Hospital And Research Centre,25.4583031,81.8403155
hospital,Shikhar Hospital,25.4412243,81.8162088
hospital,Mukti Mission Sewa Hospital,25.3500933,83.0317504
hospital,Jahangir Memorial Charitable Hospital,25.4025358,81.8692489
hospital,Meghna Hospital and Research Center,25.2981978,82.9477684
hospital,Sri Krishna Hospital and Urology Centre,26.7441571,83.3768293
hospital,Madnani Medicare Pvt Ltd,25.4423942,81.8092552
hospital,Shivam Akshayavat Hospital,25.3852492,81.8741452
hospital,Lifeline Hospital and Research Centre,26.0506256,83.1871717
hospital,Jamuna Sewa Sadan and Research Centre,25.3586252,82.952923
hospital,Sanmukh Hospital,25.4302771,82.8618097
hospital,Varanasi Hospital And Medical Research Centre,25.2932811,82.9965229
hospital,"Jeevan Deep Hospital, Bhadohi",25.3869981,82.592479
hospital,Shakuntala Hospital,25.4537711,81.8426618
hospital,"Virendra Hospital, Allahabad",25.4539839,81.8402796
hospital,Svasti Hospital,25.4767798,81.850069
hospital,Ajay Hospital Accident Care and Surgical Hospital,25.342448,82.9774846
hospital,Rajeev Gandhi Memorial Hospital and Research Centre,26.0825114,83.1820835
hospital,City Hospital and Orthopaedic and Taruma Center,25.4517419,81.8617031
hospital,"Janseva Hospital, Varanasi",25.3026937,82.952709
hospital,Arvind Surgical and Research Centre Pvt.Ltd.,25.4680026,81.8288192
hospital,Arunoday Hospital,25.3043668,82.9815736
hospital,Sneha Hospital,25.2555496,82.9586595
hospital,Varuna Hospital,25.3023421,82.9645711
hospital,"Vivek Hospital, Varanasi",25.3006034,82.9560819
hospital,Viveka Nand Hospital and Research Centre,25.1379724,82.5761953
hospital,Siddharth Multi Speciality Hospital Science and Research Center,25.7354553,82.6797527
hospital,Sarthak Surgical Center,25.3579308,83.0112496
hospital,Tyagi Hospital,26.0772963,83.1807759
hospital,Sankatmochan Netralaya and Dental Care,25.2835877,82.9983911
hospital,"Navjeevan Hospital, Varanasi",25.2960203,82.9991037
hospital,"Phoenix Hospital, Allahabad",25.4559399,81.8616736
hospital,Sardar Patel Hospital,25.4431995,81.8715656
hospital,Sanjay Fracture Clinic and Maternity Centre,26.7342168,83.3665873
hospital,Vedanta Hospital,26.0881073,83.1884345
hospital,Dr. Sarojini Singh Hospital,25.2774771,82.9661643
hospital,Soumya Hospital,25.3945146,82.566994
hospital,Tej Bahadur Sapru Hospital,25.4729624,81.845818
hospital,Nandini Medicare,25.3153485,82.9855648
hospital,Shubham Hospitals,25.3117923,82.9856793
hospital,Jagdish Hospital,26.7348828,83.3712637
hospital,"Jain Hospital, Allahabad",25.4485522,81.853981
hospital,Santushti Hospital Pvt Ltd.,25.2826176,82.975713
hospital,"Vardaan Hospital, Varanasi",25.2829826,82.9749083
hospital,Ram Janani Hospital,26.7427666,83.3702049
hospital,Maa Sharada Hospital,25.4394217,81.8572433
hospital,Hnm Shah Hospital,25.4327624,81.8176049
hospital,Krishna Heart Care and Maternity Home,25.7399794,82.6845337
hospital,J P Memorial Hospital,25.7568582,82.694088
hospital,"Sangam Hospital, Allahabad",25.4410889,81.8629107
hospital,"Priya Hospital, Allahabad",25.4502288,81.7779974
hospital,Anand Mulispecilty Hospital,26.0773898,83.186404
hospital,Annapurna Child and Maternity Clinic Pvt Ltd,26.7436375,83.357786
hospital,Netra Jyoti Centre,25.3581531,83.0144841
hospital,Shivnath Hospital,25.3667543,83.0424316
hospital,"Navjeevan Hospital, Sultanpur",26.2456502,82.0673682
hospital,"Singh Hospital, Ghazipur",25.5970814,83.5797358
hospital,Amardeep Hospital & Research Centre,25.4375479,81.8433035
hospital,"Nav Jyoti Hospital, Allahabad",25.4327503,81.7877697
hospital,Sushila Maternity And Nursing Home,25.4598731,81.865886
hospital,Abhilasha Hospital And Research Centre Pvt.Ltd,25.4458415,81.8525072
hospital,R.K. Hospital and Trauma Research Centre,26.053297,82.6870026
hospital,R.K Netralaya,25.3036115,82.9756862
hospital,R. C. Hospital,25.3010439,83.0836343
hospital,Vandana Super Speciality Hospital,25.4613007,81.8338403
hospital,Dhiraji Hospital,25.6437776,82.920776
hospital,Ashirvad Hospital and Research Center,25.3052664,82.9864379
hospital,Sunita Hospital,25.7396424,82.6656336
hospital,Sudha Surgical Hospital,25.3512519,82.9779245
hospital,"Sarodaya Hospital, Allahabad",25.4544846,81.8572352
hospital,Aman Hospital,25.4592004,81.8383109
hospital,Om Surgical Center and Maternity Home,25.3563214,83.0096523
hospital,"Vatsalya Hospital, Varanasi",25.3484644,82.975772
hospital,Dev Matenity Home,25.3422395,82.9767966
hospital,Alliance Hospital,25.3190508,82.9965833
hospital,"New Life Hospital, Varanasi",25.3129735,82.9900937
hospital,New Sahara Hospital,25.3317015,83.0236682
hospital,Anand Hospital,25.2854642,83.1191824
hospital,Anand Hospital,25.4639609,81.8480064
hospital,"Life Care Hospital, Gorakhpur",26.7439702,83.3719668
hospital,Ruma Hospital,25.9305332,82.0049501
hospital,S P Surgical Centre,25.3425037,82.9766236
hospital,Shree Ram Laxminarayan Marwari Hindu Hospital - Varanasi,25.3093752,83.0070332
hospital,Tilak Hospital and Maternity Home,25.4443541,81.8734278
hospital,Alaknanda Hospital Pvt Ltd.,25.2879096,83.001109
hospital,Shivganga Hospital,25.2537156,82.9964612
hospital,Shri Shyamlal Memorial Hospital,25.3804683,82.5691846
hospital,"Shubham Hospital, Varanasi",25.3438983,82.9881918
hospital,Netra Jyoti Hospital and Research Center,25.2896883,83.0042418
hospital,"Shraddha Hospital, Jaunpur",25.7392249,82.6874994
hospital,Sheetala Care Centre,26.7449338,83.3656207
hospital,"Ayushman Hospital, Varanasi",25.3039522,82.9867731
hospital,Shyama Hospital,25.3552798,82.9655729
hospital,Tamanna Hospital,25.4577165,81.8638489
hospital,"Harsh Hospital and Maternity Home, Allahabad",25.4315028,81.8501569
hospital,"Prabhat Hospital, Allahabad",25.5324295,81.8539981
hospital,Swastik Surgical,25.3592045,82.9591839
hospital,Prachi Hospital Pvt Ltd,25.5275209,81.8537596
hospital,Swaraj Hospital,26.2664083,82.0744157
hospital,Sushila Devi Memorial Hospital,26.0574549,82.6841958
hospital,Prasoon Hospital,25.363961,83.0360573
hospital,Pashupati Nursing Home,25.4526682,81.8558304
hospital,Galaxy Hospital,25.3050931,82.9750063
hospital,Dr. D. D. Tripathi Memorial Hospital,25.1558133,82.5830014
hospital,Chhaparia Hospital,26.7425732,83.3694841
hospital,Kashi Medicare,25.350789,83.0037045
hospital,Parvati Hospital Pvt Ltd,25.4542981,81.861392
hospital,Mahashweta Hospital Pvt. Ltd.,25.3400505,82.9920933
hospital,G.S Chandraul Hospital and Reasearch Centre,25.4490511,81.7508575
hospital,Isha Hosital,25.7330029,82.6725617
hospital,Dr. Agrawals Life Line Hospital,25.4305145,81.8182694
hospital,Apex Eye Hospital,25.7355797,82.6953149
hospital,Care Hospital - Varanasi,25.2831802,82.9699691
hospital,Ojha Hospital,25.455078,81.8636557
hospital,"Ganga Hospital, Allahabad",25.4652873,81.848852
hospital,Vineeta Hospital Pvt Ltd,25.5225384,81.8654629
hospital,Nangalia Hospital,26.7410605,83.3641767
hospital,Bk Heart Hospital Pvt Ltd,25.2826237,82.9706222
hospital,Kids Care Hospital,25.2886212,82.9940888
hospital,Rohit Laproscopic Surgical Center,25.3091348,82.9838206
hospital,J.P. Memorial Hospital- Allahabad,25.4467048,81.8536506
hospital,Swami Harshankaranand Ji Hospital and Research Center,25.2836471,82.9714912
hospital,Sri Sai Surgical and Maternity Hospital,25.2821724,82.9919971
hospital,"Saba Hospital, Mau",26.0229049,82.9230016
hospital,Canossa Hospital,25.8951054,81.9491571
hospital,Shakuntala Hospital and Research Center,25.3060181,82.9371
hospital,"Saba Hospital, Azamgarh",26.0852507,83.2846813
hospital,Heartline Cardiac Care Centre,25.4528057,81.838245
hospital,Gomti Hospital and Research Centre Pvt Ltd,26.2730487,82.0772918
hospital,"Sundaram Hospital, Allahabad",25.2884224,81.9295375
hospital,Vijay Memorial Hospital,25.4527421,81.7801378
hospital,"Life Line Hospital, Varanasi",25.2832627,82.9808334
hospital,Sah Hospital,25.3239083,83.0044448
hospital,Gaurav Charitable Hospital,26.2471333,82.0680146
hospital,Hindu Sewa Sadan Hospital,25.3118509,83.0085801
hospital,Yashlok Hospital and Research Hospital,25.4601867,81.8657197
hospital,Saraswati Heart Care,25.4530579,81.8561448
hospital,Sri Sitaram Memorial Hospital,25.2851738,81.9339886
hospital,"Srijan Hospital, Varanasi",25.3569528,83.0063143
hospital,"Jaya Hospital, Allahabad",25.4434163,81.8666491
hospital,Maa Vaishno Child And Maternity Clinic,26.742669,83.3693071
hospital,K G Nanda Hospital,25.260181,83.2550778
hospital,Aashadeep Hospital,26.2525501,82.2279064
hospital,Prayag Healthcare Center,25.2960299,82.9434594
hospital,"Pooja Hospital, Allahabad",25.4529673,81.8619901
hospital,Popular Hospital,25.292644,82.9705367
hospital,Harsh Maternity And Nursing Home,25.153709,82.5721331
hospital,Raj Eye Hospital,26.7448169,83.3789191
hospital,Seema Health Care and Research Center,26.7057053,82.1375115
hospital,Jyoti Institute Of Medical and Rehabilitation Sciences(Jimars),25.4573823,81.8597652
hospital,Varadan Hospital,25.3509156,82.9768342
hospital,Kumar Surgical Nursing Home,25.7496613,82.6933063
hospital,J.C. Maternity Centre,25.474104,81.8517905
hospital,Eye Care Hospital,26.0783822,83.1723598
hospital,Mall Hospital and Health Care,26.744899,83.3792581
hospital,Arogya Chikitsalaya,25.3021699,82.9313258
hospital,Kriti Cancer Institute and Research Centre,25.4491387,81.8545359
hospital,Maa Tara Hospital,25.7380913,82.6632856
hospital,Priya Multispeciality Hospital Pvt.Ltd.,25.3188013,82.9920584
hospital,Saket Hospital,25.45784,81.8711485
hospital,Iqbal Hospital,26.0766145,83.1816825
hospital,Hayat Hospital & Maternity Center,25.4024268,81.8696527
hospital,Drs Hospital,25.4503565,81.7667388
hospital,Swami Vivekanand Jan Kalyan Hospital,25.2579469,82.961565
hospital,Aashirwad Hospital And Research Centre,25.7376672,82.6737405
hospital,Kamla Hospital,25.7380768,82.6853894
hospital,Pragya Hospital,26.7430307,83.3710827
hospital,Kashi Hospital,25.2804967,82.9677971
hospital,Asha Hospital,25.4662808,81.8269953
hospital,Karma Health Centre,25.3474587,81.8309348
hospital,Heiwel Hospital and Rehabilitaition Center,25.3527657,82.96783
hospital,Sarnath Hospital,25.3605676,83.0265085
hospital,Laxmi Health Care and Hospital,25.7801071,82.6904869
hospital,Aryan Hospital,26.7386077,83.3733599
hospital,Swastik Eye and Dental Care,25.9372824,83.5682842
hospital,Apex Hospital,25.2831311,82.9684355
hospital,Harshlok Eye Care Centre,25.3543803,82.9624132
hospital,Mrittunjai Hospital,25.1456148,82.5711018
hospital,Mrityunjay Hospital,25.3213263,83.0129261
hospital,Pragya Multi Speciality Hospital and Research Center,25.3757006,82.9161931
hospital,Ram Krishna Sewashram,25.1517029,82.530469
hospital,Dr R D Memorial Charitable Hospital,25.2608414,83.2576293
hospital,Vandna Hospital,26.2361256,82.0656809
hospital,"District Hospital, Sultanpur",26.2627557,82.069966
hospital,Ayushman Hospital and Trauma Centre,25.332967,83.0144739
hospital,Narayan Swaroop Hospital,25.4498431,81.7643604
hospital,Hospital Harsha,25.3007101,83.0023755
hospital,Institute Of Medical Science and S.S.Hospital,25.2744502,82.9995149
hospital,Medwin Hospitals And Research Centre,25.3205662,83.0127322
hospital,Kamla Nehru Memorial Hospital,25.4591151,81.8613611
hospital,Alok Health Care Hospital Pvt Ltd,25.2879707,83.004762
hospital,Dr Ram Bilas Fracture and Surgical Centre,25.3109998,82.9868113
hospital,Sudbhawana Hospital,25.2788183,82.9996276
hospital,Goverment hospital,24.7785109,82.093446
hospital,Sadar Hospital Kaimur,25.0398593,83.6079633
hospital,"Referral Hospital,Ramgarh",25.292442,83.659746
hospital,Government Hospital SONGAR,25.9098683,82.7515923
hospital,Government Hospital Azmatgarh,26.1574109,83.3596833
hospital,MAHARAJA BALAVANT SINGH COMBINED DISTRIC HOSPITAL,25.3956644,82.5650775
hospital,Government Hospital,26.0400073,83.0479925
hospital,Rajkiya Mahila Chikitsalaya Mughalsarai,25.2824618,83.1223165
hospital,Mahen,26.3260512,83.6570256
hospital,District Male Hospital Pratapgarh,25.9218299,81.9990201
hospital,District Women Hospital Jaunpur,25.7592013,82.6968142
hospital,Government Hospital Anapur,25.6193924,81.688077
hospital,Government Hospital Kadipur,26.1672645,82.3709553
hospital,Government Hospital,26.0432547,83.2883379
hospital,Govt. Hospital,25.3295693,82.4653718
hospital,"Goverment hospital,Dildar Nagar",25.4254554,83.6665595
hospital,District Women Hospital Pratapgarh,25.9221279,81.9986835
hospital,Government Hospital Pachewara,25.1581063,82.9559425
hospital,District Women Hospital Mau,25.9432027,83.5691249
hospital,Government Hospital,26.3964803,83.0721076
hospital,Government Hospital Chak Goraiya,25.1334662,82.8158741
hospital,Government Hospital PARMANPUR,25.7631436,83.1902173
hospital,Government Hospital Diyara,26.218467,82.2821856
hospital,Government Hospital RASULPUR,26.2244566,83.5894346
hospital,Government Hospital Adari,25.9840993,83.6205871
hospital,MAHATMA JYOTIBA PHULE DISTRICT HOSPITAL,26.4466468,82.5606868
hospital,"Government Hospital,Danoo Pur",25.4215976,82.7122906
hospital,Government Hospital Airakunda,25.8158897,83.2969974
hospital,Government Hospital Khoriya,26.6729884,82.9300437
hospital,Shahgarh Govt. Hospital,26.043524,83.2210077
hospital,District Male Hospital Azamgarh,26.0827457,83.1900376
hospital,Manohar Das EYE Hospital,25.4402567,81.8277544
hospital,District Women Hospital,25.1522759,82.5767586
hospital,Govt Hospital Nonar Tulsi Ashram,25.340059,83.3494212
hospital,Medical Collage Azamgarh,25.9046515,83.2049963
hospital,District Female Hospital Azamgarh,26.0637645,83.1833871
hospital,Government Hospital Halliya,24.8279468,82.3259385
hospital,Jiyanpur Goverment Hospital,26.1613935,83.3393991
hospital,Government Hospital,25.4912268,82.8273245
hospital,Govt. Hospital,26.6321041,83.2994141
hospital,Government Hospital AMEYMAFI,26.1926847,81.9201538
hospital,Government Hospital Hatiya,25.847722,82.2924364
hospital,District Male Hospital Ghazipur,25.5574522,83.5475761
hospital,MAHARAJA CHET SINGH DISTRICT HOSPITAL,25.3300687,82.4654724
hospital,Government Hospital Tiwaran,25.5154329,82.6785283
hospital,Government Hospital Sathariya,25.6605677,82.235245
hospital,PT K P T Distt.Combined Hospital Chandauli,25.2589427,83.2734892
hospital,Moti Lal Nehru District Hospital,25.4392781,81.8285215
hospital,Government Hospital RAMGANJ,26.1161015,82.0410302
hospital,Government. hospital khajni,26.6652993,83.2497154
hospital,Sarkari Hospital,25.185554,82.6310129
hospital,Sarkari Hospital Anauni,25.6037091,83.1424512
hospital,Government Hospital Bharahu ka pura,25.9564898,83.5432845
hospital,Government Hospital Bhaipur,25.0811096,83.0860993
hospital,District Women Hospital Ghazipur,25.5822075,83.5819539
hospital,Government Hospital Padarkunda,26.1851542,83.4120964
hospital,"Government Hospital,GOBARAHA",25.3613519,83.1609303
hospital,Government Hospital Bajarang Nagar,25.6535266,82.9935095
hospital,District Male Hospital Mirzapur,25.1544088,82.5771099
hospital,Atrauliya Government Hospital,26.3337516,82.9468001
hospital,Government Hospital,25.9765307,82.7512108
hospital,Government T.B. Hospital,25.4997681,81.8638247
hospital,Contonment Hospital,25.3318796,82.9791974
hospital,P.M.C. Hospital,25.287653,83.0018096
hospital,Jagat Hospital,25.3841559,82.9046875
hospital,Oppo Hospital Maduadih,25.2947692,82.9713814
hospital,Raju Hospital,25.3799982,82.9939926
hospital,Pankhudi Hospital,25.3293525,83.0178987
hospital,Sadguru Hospital,25.3458516,82.9962729
hospital,LG Hospital,25.3527952,82.9819036
hospital,Aryan Hospital,25.3790856,82.9758181
hospital,Suresh Singh Memorial Hospital,25.3528561,83.0018585
hospital,Jeevan Anmol Hospital,25.2791873,82.9988665
hospital,Ritu Hospital,25.314058,82.956667
hospital,Rama Medical Care Centre,25.3097288,82.9909972
hospital,Delight Hospital,25.256901,82.9593747
hospital,Vatsalya Children Hospital,25.3521054,82.9816775
hospital,Usha Memorial Hospital,25.3397137,82.9256749
hospital,Jiwan Jyoti Children Hospital,25.2680252,82.8472511
hospital,Jyotirmay Hospital,25.3104055,82.9841904
hospital,Heritage Hospital,25.2855147,82.9946911
hospital,Popular Hospital,25.3053488,82.986451
hospital,Sudha Surgical Multi Speciality Hospital,25.3508619,82.9760521
hospital,Chadr Prabha Hospital,25.352927,82.9786969
hospital,Amrit Milan Hospital,25.3840791,82.9710842
hospital,Pragya Maternity & Child Care Hospital,25.2792438,83.0008893
hospital,Dr. R S Singh Hospital,25.3618976,82.9523441
hospital,Vanshika Children Hospital,25.3517441,82.9811912
hospital,Prabhat Hospital Bhelupur,25.3039498,82.9900586
hospital,Prakhar Hospital,25.360696,82.941177
hospital,R.S. Hospital and Research Centre,25.360778,82.9506846
hospital,Bharti Hospital,25.3603471,82.9485332
hospital,Guru Nanak Hospital,25.3071525,82.9931648
hospital,Ramkrishna Hospital & Child Care Centre,25.2622943,82.9656
hospital,Health Care Hospital,25.306562,82.9750547
hospital,Sangam Hospital,25.356267,82.953296
hospital,Friend's Hospital,25.34965,83.004945
hospital,Smayan Hospital,25.311236,82.986316
hospital,Medicity Hospital & Critical Care,25.300271,82.994653
hospital,Shubham Banaras Hospital,25.3119109,82.9865396
hospital,New Khushbu Hospital,25.3646315,82.974667
hospital,Vardan Hospital and Laparoscopic Centre,25.35072,82.977243
hospital,Getwell Hospital,25.2760391,82.9682885
hospital,Prasad Hospital,25.3503004,82.9930871
hospital,Vijaya Hospital,25.2705135,82.7175129
hospital,Trimurti Hospital,25.3520678,82.9714491
hospital,Neelam Hospital,25.3793331,82.9935422
hospital,Pratik Hospital,25.2838042,82.9699867
hospital,Chirayu Medi Surgical Hospital,25.3083121,82.9849165
hospital,S-Base Hospital,25.2787979,83.0043951
hospital,Maulana Azad Bunkar Hospital,25.331716,83.007717
hospital,Police Line Hospital,25.350571,82.9886593
hospital,Jeevan Rekha Hospital,25.353663,83.0025949
hospital,Vaidik Hospital and Trauma Centre,25.2974834,82.9437303
hospital,Shubhyash Hospital & Speciality Clinic,25.3507954,82.9752551
hospital,Shivam Hospital,25.300895,82.9534599
hospital,Janta Sewa Hospital,25.3042531,83.0029649
hospital,ASG Eye Hospital,25.305723,82.984596
hospital,Prince Hospital,25.354029,83.004075
hospital,Kunta Devi Hospital,25.3650305,82.9593359
hospital,Baba Kinaram Hospital,25.2977607,82.9924693
hospital,Jhumawati Hospital,25.3161662,82.9679451
hospital,Filaria Hospital - NCDC,25.3350788,83.001357
hospital,Kunjan Homeo Hospital & Research Centre,25.350619,82.9705221
hospital,Healthmax Hospital,25.3242107,83.0031446
hospital,Raj Memorial Hospital,25.3535742,83.0039645
hospital,Laxmi Hospital,25.3276365,82.9903258
hospital,Public Welfare Hospital,25.3051959,82.9937819
hospital,G.S.Memorial Plastic Surgery Hospital and Trauma Centre,25.3023319,82.974999
hospital,Verma Hospital,25.302198,82.9644864
hospital,K.L.Hospital and Trauma Centre,25.2584064,83.0366509
hospital,Sanjeevni Hospital,25.3538348,82.9778179
hospital,Global Hospital & Trauma Centre,25.2653332,82.9654152
hospital,Versova Hospital,25.2576159,82.9611938
hospital,Saroj Hospital,25.2470817,82.9510253
hospital,Kalpana Hospital,25.35316,82.983488
hospital,मेट्रो ऋषिदेव अस्पताल,25.2562993,82.9599053
hospital,Midway Hospital,25.3150869,82.983205
hospital,M.S.D Hospital,25.3543255,82.9762314
hospital,Rohit Hospital,25.3617698,82.9478768
hospital,Maitri Hospital,25.3175707,82.9742152
hospital,New Phoenix Hospital,25.2827533,82.9683006
hospital,Indra Multispeciality Hospital & Diagnostic Centre,25.2473308,82.9522276
hospital,Mishal Hospital & Health Care Unit,25.2827214,82.9400178
hospital,Anant Hospital,25.2862554,82.9228527
hospital,Avi Hospital,25.330641,82.995829
hospital,City Ideal Hospital,25.3310155,83.0137611
hospital,Pitambari Hospital,25.2488922,82.9866484
hospital,Prithvi Hospital,25.2966727,82.9999593
hospital,Sudarshana Hospital,25.313519,82.9678978
hospital,Gem Hospital,25.327632,83.027387
hospital,Maa Gouri Hospital,25.346699,82.996889
hospital,Janta Hospital and Maternity Centre,25.244814,82.951158
hospital,Prakash Hospital,25.2699123,82.7185358
hospital,Shri Gangaram Memorial Hospital,25.244372,82.979733
hospital,Nityanand Hospital,25.3655945,83.0255416
hospital,Nova Hospital Shivpur Varanasi,25.3620384,82.9461627
hospital,"Jain Hospital, Varanasi",25.3498326,82.9920187
hospital,Mandhata Hospital and Trauma Centre,25.3650418,82.9745778
hospital,Dirghayu Hospital and Surgical Centre,25.3600727,83.0200794
hospital,Rudrakashi Hospital,25.34992,82.9831869
hospital,Ansh Neuro and Maternity Centre,25.3486582,82.967746
hospital,Bhargava Hospital and Trauma Centre,25.3497167,82.9911283
hospital,Sarang Medicare Hospital and Dental Research Centre,25.3623019,83.039967
hospital,Ansh Neuro and Maternity Centre,25.3469853,82.9699986
hospital,Chandra Hospital,25.3070243,82.9435133
hospital,Shivangan Hospital,25.3079915,82.9349485
hospital,Prakashdeep Hospital,25.3509938,82.9767235
hospital,Peace Point Hospitals,25.2970026,82.9981729
hospital,Rajapuriya Heart Hospital,25.293286,82.996088
hospital,Sabika Hospital,25.2943269,82.9797908
hospital,Upkar Eye Hospital,25.283863,82.9792278
hospital,Ashutosh Hospital,25.3010102,82.9468621
hospital,New Jagriti Hospital & Research Centre,25.2584272,82.9635472
hospital,Ganga Sewa Sadan Hospital,25.3038069,82.9592991
hospital,जाॅर्जियन सुपरस्पेशिएलीटी अस्पताल,25.2626172,82.9649674
hospital,Hemant Singh Hospital,25.357824,82.9651728
hospital,Lilawati Hospital,25.275215,83.010057
hospital,Military Hospital,25.3334913,82.9701359
hospital,Purnima Hospital,25.287879,82.9529316
hospital,Holy City Hospital and Trauma Centre,25.3580501,83.0069587
hospital,Sarvodaya Hospital,25.3334728,83.0025498
hospital,Amarnath Seva Sansthan Hospital,25.3621084,82.9541844
hospital,New Medicare Hospital,25.3203803,82.9866726
hospital,Prime Kidney Stone Centre & Urology Hospital,25.3001405,82.9945731
hospital,S N Yadav Hospital,25.350184,83.022946
hospital,Arogya Hospital,25.2580075,82.9615306
hospital,Ashirvad Hospital & Research Centre,25.3044817,82.9781929
hospital,Uttakarsh Hospital,25.3040185,82.9536821
hospital,Sai Raj Hospital,25.3331628,82.9907332
hospital,Maa Rajwati Hospital,25.2710147,82.9670171
hospital,Yashoda Memorial Hospital,25.3528627,82.9831882
hospital,Janseva Hospital and Research Centre Pvt Ltd,25.256328,83.0368468
hospital,Saraswati Hospital,25.351731,82.975836
hospital,Bhardwaj Hospital,25.3153178,82.9632672
hospital,Maxwell Hospital,25.2474055,82.9933785
hospital,Peace Point Hospital Pvt. Ltd.,25.2951669,83.0005744
hospital,K. P. Memorial Hospital,25.3622038,82.9540022
hospital,Kashi Hospital,25.3506287,82.9783479
hospital,Sri Ram Hospital & Maternity Centre,25.305302,82.978926
hospital,Parma Hospital,25.314154,82.958277
hospital,Sarkari Hospital,25.311547,82.977666
hospital,Shiva Hospital,25.3581659,82.9928698
hospital,Prateek Hospital,25.3528259,82.9972908
hospital,Ford Hospital,25.2744193,83.010027
hospital,Om Sai Hospital,25.2637524,82.9635564
hospital,Yash Hospital,25.3491391,82.9918442
hospital,City Hospital,25.3104104,82.9853827
hospital,Opus Hospital,25.3502471,82.9781808
hospital,Kasih Hospital,25.3088398,82.938513
hospital,Akanksha Hospital,25.3526203,82.9774508
hospital,Amit Gupta Hospital,25.3087773,82.9843883
hospital,Bramharshi Hospital,25.2784619,82.9474918
hospital,Banaras Medicity Heart & Super Speciality Hospital,25.3080296,82.986806
hospital,Chandra Mohan Hospital,25.3505789,82.9775258
hospital,"Apex Hospital, Varanasi",25.3257252,82.9845891
hospital,Shruti Clinic - Dr.G.S. Singh,25.3502427,82.9905536
hospital,Laxmi Memorial Children Hospital,25.3432895,82.9883359
hospital,Hajra Hospital,25.3253079,83.009261
hospital,Manish Hospital,25.2669629,82.9669399
hospital,Heritage Hospital,25.3130492,83.0041467
hospital,Navjeevan Hospital,25.3492833,83.0031583
hospital,Savitri Hospital,25.5281738,81.8539012
hospital,Saraswati Hospital,25.437135,81.8495489
hospital,Dua Eye Hospital,25.4617973,81.8343315
hospital,Narayan Hospital,25.240754,81.9511813
hospital,Harsh Hospital,25.446226,81.8513037
hospital,Divyaroshni Healthcare Hospital,25.4538532,81.8287271
hospital,Srm Hospital,25.3928078,81.8415411
hospital,Balaji Hospital,25.4522464,81.8754118
hospital,Global Eye Institute Of Optometry,25.4149498,81.8622496
hospital,Saujanya Hospital,25.4380966,81.944851
hospital,Day and Night Hospital,25.3883985,81.8655549
hospital,Nitin Hospital,25.4243952,81.9166825
hospital,Lav Asha Homeopathic Hospital,25.3870321,81.8760138
hospital,Sehar Hospital,25.4201104,81.8203849
hospital,Gama Hospital,25.4181117,82.0168496
hospital,Abhishek Hospital,25.4382939,81.9445669
hospital,Sanchita Hospital,25.3916212,81.9855914
hospital,Geeta Hospital,25.4508612,81.863376
hospital,Priyanshu Hospital,25.5236604,81.8635059
hospital,Khalil Memorial Hospital,25.5240056,81.8628694
hospital,Akash Hospital,25.401985,81.8387037
hospital,Abhishek Hospital,25.4509049,81.9540922
hospital,Srujan Hospital,25.2339589,81.7884697
hospital,Nelu Hospital,25.4254753,81.91995
hospital,Genesis Hospital,25.3641431,81.880636
hospital,Manohar Das Eye Hospital,25.4410709,81.8271627
hospital,Sangam Hospital,25.4292556,81.9119268
hospital,Nishtha Hospital,25.4288679,81.9330948
hospital,Saroj Hospital,25.4523347,81.8652883
hospital,Ashirwad Hospital,25.3839362,81.9600568
hospital,Shyama Hospital,25.4280582,81.9133898
hospital,Awami Hospital,25.4138395,81.8413476
hospital,KMC Hospital,25.4261667,81.8160399
hospital,Kirti Hospital,25.462755,81.959532
hospital,Ishi Hospital,25.4755837,81.855608
hospital,Adarsh Hospital,25.4134092,82.0207496
hospital,Haiza Hospital,25.4470513,81.8739577
hospital,Vasudev Hospital,25.4277359,81.9165058
hospital,Aryan Hospital,25.4397526,81.99065
hospital,Srijan Hospital,25.4342516,81.8564318
hospital,Manas Hospital,25.2851799,81.8021312
hospital,Tanvi Hospital,25.416381,81.9259227
hospital,Aarav Brain and Spine Hospital,25.4560263,81.8605871
hospital,Mgm Hospital,25.434963,81.760538
hospital,"Bs Mehta Eye Hospital, Allahabad",25.458273,81.830956
hospital,Rama Hospital,25.2782143,81.9686325
hospital,Akshayvat Hospital,25.389825,81.8773642
hospital,Harsh Hospital and Maternity Centre,25.3954569,81.8728768
hospital,Jawahar Hospital,25.4408369,81.817462
hospital,Sai Hospital,25.3952126,81.8791742
hospital,Janata Hospital,25.4353356,81.9071495
hospital,"Ayan Hospital, Kareli",25.4259448,81.8192878
hospital,Vasaa Hospital,25.4522178,81.8753068
hospital,Vijaya Hospital & Trauma Centre,25.4481651,81.8327085
hospital,Vivekanand Hospital,25.2724139,81.8017832
hospital,Amar Jyoti Hospital,25.282758,81.9634561
hospital,FMC Hospital,25.3152351,81.9224389
hospital,"Bani Hospital, Kotwa",25.4396875,81.9915882
hospital,Mangalam Hospital,25.422192,81.9252478
hospital,Vidyawati Hospital,25.5238863,81.8642808
hospital,Bhumi Hospital,25.3840322,81.8404546
hospital,Jeevan Deep Hospital,25.3147827,81.9232142
hospital,J. M. Hospital,25.3685133,81.8397003
hospital,Global Eye Hospital,25.4368037,81.8480338
hospital,Raj Hospital,25.2762732,81.7992444
hospital,Sachan Hospital,25.3227665,81.8236973
hospital,Iffco Hospital,25.536083,82.062945
hospital,Fatima Memorial Hospital,25.423565,81.821401
hospital,Gayatri Hospital,25.4449666,81.8655277
hospital,Sarthak Hospital & Fracture Clinic,25.4219169,81.9319388
hospital,Aasha Hospital,25.396483,81.8610897
hospital,Ashwani Hospital,25.4313079,81.9052803
hospital,Prakash Hospital,25.273134,81.9777463
hospital,Shankar Hospital,25.4158157,81.8637674
hospital,Vedant Hospital,25.542523,81.892178
hospital,Bagwati Hospital,25.4394355,81.8578003
hospital,Amar Memorial Hospital,25.4835843,81.9795278
hospital,Jansuvidha Hospital,25.4468425,81.9503839
hospital,Lotus Hospital,25.4318447,81.9035617
hospital,Shivam Hospital,25.371006,82.1143143
hospital,J.K. Hospital,25.4368704,81.8512959
hospital,S. S. C Hospital,25.381536,81.8628506
hospital,Panchsheel Hospital,25.4559557,81.8578098
hospital,K.D.Memorial Hospital,25.431753,81.80462
hospital,Sarthak Hospital,25.4218951,81.9324259
hospital,Hayes Mission Memorial Hospital,25.4138123,81.8449322
hospital,Vijay Hospital,25.4552704,81.8713003
hospital,Prabhawati Hospital,25.4256662,81.9124812
hospital,"Ojas Hospital, Mahuwari",25.3574355,81.8850736
hospital,Ashutosh Hospital & Trauma Centre,25.4579215,81.861614
hospital,Triveni Hospital,25.4248375,81.9249025
hospital,Surya Hospital,25.3961824,81.8701322
hospital,Ashirwad Hospital,25.4968506,81.8622913
hospital,"Akshatdham Physiotherapy Hospital, Jhunsi Allahabad",25.4253647,81.9152818
hospital,Kesharwani Hospital & Research Institute,25.4324027,81.8457465
hospital,Saryu Hospital,25.4289,81.9123028
hospital,Kamla Hospital,25.4316967,81.9034381
hospital,Gauri Devi Hospital,25.2154551,82.0803088
hospital,New Ojus Hospital,25.3465349,81.8945467
hospital,Krishna Hospital,25.4625214,81.8425879
hospital,Dufferin Hospital,25.4396577,81.8270452
hospital,Unani Hospital,25.4253981,81.8182801
hospital,Shri Mahavir Clinic,25.4697296,81.8428384
hospital,Ayushi Hospital,25.4341047,81.8148321
hospital,Adarsh Hospital,25.4505861,81.8552305
hospital,Care Hospital,25.4287398,81.8161335
hospital,Alka Hospital,25.4613291,81.8650796
hospital,City Hospital,25.4236777,81.9072118
hospital,Jagdish Hospital,25.4356527,81.7567907
hospital,Vidyawati Hospital,25.2194003,82.0844749
hospital,Mrityunjay Hospital,25.5001737,81.8563686
hospital,Narayan Hospital,25.451274,81.833165
hospital,Siddhi Vinayak Hospital,25.3488454,81.860773
hospital,Ojha Hospital,25.4543639,81.8624484
hospital,Aadya Hospital,25.4282806,81.9350397
hospital,Aanchal Hospital,25.4277663,81.8216437
hospital,Mohak Hospital,25.4760522,81.8485389
hospital,Onkar Hospital,25.5200969,82.0355906
hospital,Surbhi Hospital,25.430112,81.8468066
hospital,Ojas Clinic and Hospital,25.3895338,81.8835772
hospital,Janhit Hospital,25.3178464,81.9189388
hospital,Vardan Hospital,25.5241135,81.8533742
hospital,Meena Hospital,25.403402,81.8400838
hospital,Jeevan Sahara Hospital,25.4305559,81.7934122
hospital,SS Hospital,25.4282064,81.9148584
hospital,Pooja Hospital,25.391022,81.8476873
hospital,Usha Hospital and Maternity Centre,25.4587093,81.8654845
hospital,Mission Hospital,26.0491821,83.1703756
hospital,Vasdei Memorial Hospital,26.0534251,83.1819668
hospital,Adarsh ENT Centre,26.0631192,83.1842778
hospital,Shakti Hospital,26.0817422,83.1791071
hospital,Ishaque Hospital,26.0736871,83.1851653
hospital,Indra Hospital,26.0531341,83.160314
hospital,Arogya Niketan Hospital,26.0814335,82.8755807
hospital,Al-Jamiat-Ul-Ashrafia Hospital,26.0720095,83.2881841
hospital,Al Falah Hospital,26.191063,83.2266289
hospital,Al Noor Hospital,26.0784289,82.87869
hospital,Faizi Memorial Hospital,26.0050772,83.0339536
hospital,Fatima Hospital,26.1958501,83.2280537
hospital,Dr.Abrar Hospital,25.8788237,83.1143567
hospital,City Hospital and Child Care Centre,26.0421294,83.2865082
hospital,Chirayu Hospital,26.0971471,83.1884299
hospital,Manv Rachna Haddi Hospital,25.8784535,82.9378104
hospital,H. M. Surgical Hospital,26.0799086,83.1861017
hospital,Saksham Hospital,26.0483921,83.1676821
hospital,Nazma Hospital,26.0754935,83.1786517
hospital,Grand Hospital,26.0473743,83.1911903
hospital,Aqsa Hospital,26.078987,83.1909081
hospital,Life Care Hospital,26.0799806,83.1745276
hospital,New Star Hospital,26.0407147,83.1594891
hospital,Opal Hospital,26.0425351,83.1913244
hospital,Aqsa Hospital,25.986887,83.0741923
hospital,Shivam Hospital,25.9567882,83.2687737
hospital,PGI Hospital,26.3447839,82.92379
hospital,"Global Hospital, Azamgarh",26.0466322,83.1975419
hospital,Sanvi Child Care Hospital,25.8083568,82.996463
hospital,Maha Mritunjai Hospital and Medical College,26.0012566,83.2050519
hospital,Paigam Hospital,26.0031627,83.1098305
hospital,K.N.Lal Memorial Hospital,26.0887921,83.1877767
hospital,Health Care Hospital,26.0463948,83.1906502
hospital,Janta Hospital,26.0797381,83.1747649
hospital,Shiva Hospital,26.079445,83.174883
hospital,Awadh Hospital,26.06634,83.0598851
hospital,Vinayak Hospital,26.0602871,83.1734903
hospital,Islamia Hospital,26.0840151,83.2906805
hospital,Saroj Multi Speciality Hospital & Trauma Centre,26.0472821,83.1898257
hospital,Kumar Child Care Centre,26.0839749,83.1958064
hospital,Baby Hospital,26.0796793,83.1908379
hospital,Medicity Hospital and Research Centre,26.0319008,83.1510706
hospital,Asha Hospital,26.0415792,83.1893758
hospital,Salmani Hospital,26.0764148,83.1774245
hospital,Saira Hospital,26.0797262,83.1906621
hospital,Phariha Hospital,25.9970077,83.0315667
hospital,Maurya Hospital,26.1422591,83.2758897
hospital,Tibbiya Hospital,26.0526241,82.9466104
hospital,Vidya Hospital Multi Speciality Centre,26.0419295,83.185068
hospital,Haddi Hospital,26.1839569,82.899226
hospital,Apollo Hospital,26.0393854,83.1883752
hospital,Divya Hospital,25.9583235,83.2661692
hospital,Faizi Hospital,25.9978065,83.0301602
hospital,S M Hospital,26.1458809,83.3117016
hospital,Jivan Nidhi Eye Hospital,26.0359397,83.1546397
hospital,Anand Hospital,25.8060626,82.9974483
hospital,N.N. Memorial Hospital,26.0370609,83.1856143
hospital,Siddhi Vinayak Hospital,25.7440802,82.9877976
hospital,Government Hospital,26.1303858,82.8138697
hospital,Vikas Hospital,25.9120071,83.1174408
hospital,Sarvodaya Hospital,26.0806877,83.1734281
hospital,Dubey Hospital,26.0422692,83.1562316
hospital,Vidya Hospital,26.0420667,83.1874925
hospital,Roohi Hospital,26.0783167,82.8786717
hospital,Rainbow Children Hospital,26.0463876,83.1983435
hospital,Abhishek Hospital,26.05156,83.136324
hospital,Bhargava Hospital,25.7851858,82.8269968
hospital,Farhat Hospital,26.0653229,82.9604012
hospital,Apex Hospital,26.0489504,83.0607211
hospital,Akbari Hospital,26.1021842,83.00344
hospital,Gupta Hospital,26.0927856,83.1981702
hospital,Hasan Hospital,25.9979213,83.0293095
hospital,Modern Hospital,26.0758322,83.1793576
hospital,Arma Clinic and Hospital,26.1325873,82.8134594
hospital,Dr Jp Yadav Hospital,25.8672015,83.014136
hospital,Aarushi Clinic & Hospital,26.0554641,82.8029103
hospital,Madhav Hospital,26.0645219,83.1923277
hospital,Naman Hospital,26.322914,82.9519288
hospital,Arogyam Hospital,26.055551,83.1552607
hospital,Old Hospital,25.8002463,82.9978254
hospital,Nav Drishti Eye and Dental Hospital,26.087803,83.1878737
hospital,"Sarkari Hospital, Bhiro Baba Mandir",26.2672135,83.1135104
hospital,Aditya Hospital,26.046154,83.205506
hospital,"Shivam Hospital, Sofipur",26.0725385,83.0683707
hospital,Konark Hospital,26.2556796,83.1136922
hospital,National Super Speciality Hospital and Trauma Centre,26.0794087,83.187859
hospital,Nidhi Hospital,26.0164831,83.007195
hospital,Nav Jeevan Jyoti Hospital,26.090434,83.1677312
hospital,Regal Hospital,26.0499315,83.168257
hospital,Navjeevan Hospital,25.8811965,82.9397455
hospital,Krishna Medical Centre,26.0753005,83.1890616
hospital,Osho Dhara Hospital,26.0901813,83.1956793
hospital,Sahara Hospital,26.1274477,83.2338015
hospital,Maternity Hospital,26.0765239,83.1890273
hospital,Shashank Hospital,26.0015308,83.1057611
hospital,Zaahira Hospital,26.088192,83.2899503
hospital,Shifa Hospital,26.0242325,82.9223572
hospital,Nav Jyoti Eye Hospital,26.2015509,83.2308811
hospital,Matrachhaya Hospital,25.8151263,83.0019791
hospital,Rama Multispeciality Hospital & Trauma Centre,26.0482358,83.1706125
hospital,India Hospital,26.1788286,83.2136523
hospital,Lotus Hospital,26.0485301,83.1858298
hospital,Fatima Hospital,26.0708579,83.1904494
hospital,Purvanchal Hospital,26.0758707,83.1790268
hospital,Nazeer Hospital,26.0784236,83.1888651
hospital,Ayyub Hospital,26.1980395,83.227438
hospital,Hasan Hospital,26.0206374,82.9278277
hospital,Shifa Hospital,26.2003606,83.2286608
hospital,Sahaj Hospital,26.0968961,83.1879355
hospital,Kachhwa Christian Hospital,25.2095222,82.7146077
hospital,Sardar Patel Hospital,26.7455238,83.3786225
hospital,Sewa Hospital,25.1313825,82.5655466
hospital,Pulse Hospital,26.7452299,83.3798376
hospital,Dr. G.M Ansari Pasu Chikistalay,26.452277,83.258582
hospital,Jyoti Eye Care Hospital,25.9244828,83.5668777
hospital,Patel Hospital,24.8884202,82.6955288
hospital,Sewa Hospital,26.7436618,83.3719799
hospital,Usmania Hospital,26.3037309,83.0853731
hospital,The Pride Hospital,26.734908,83.3669987
hospital,Sewa Hospital,26.0529221,82.6874616
hospital,Deep Ganga Hospital,25.208821,82.7205375
hospital,Sakshi Hospital & Laparoscopy Centre,26.7278429,83.3838578
hospital,Prakash Hospital,26.6957341,83.4807387
hospital,Park Hospital,26.7403626,83.3690208
hospital,Janani Hospital and Trauma Centre,25.2930502,82.4120347
hospital,Shubham Hospital and Nursing Home,25.075292,82.7346402
hospital,Modi Hospital,26.7426488,83.3705997
hospital,Shri Sai Hospital and Dental Care,25.0123088,82.3534872
hospital,Balrampur Hospital,26.3029975,83.0767205
hospital,Gastro Liver Hospital,26.7445088,83.3811243
hospital,Jai Shankar Hospital,25.1475101,82.5430396
hospital,Prabhawati Hospital,25.2904068,82.4194962
hospital,Hriday Rog Hospital,25.1343525,82.5579949
hospital,Yashoda Hospital and Heart Chest Care Centre,25.7421703,82.6868267
hospital,Vishwas Surgical Hospital,24.867655,82.854619
hospital,Medispring Hospital & Research Centre,26.7327713,83.3700866
hospital,Zainab Memorial Hospital,26.0354969,83.3635257
hospital,Sarita Hospital,25.2517659,82.7078779
hospital,Rajdeep E.N.T. Hospital,26.7451987,83.3779555
hospital,Jan Jeevan Hospital,25.1562249,82.5022372
hospital,Sangam Eye Hospital,26.7343271,83.3640482
hospital,Anand Hospital,25.2643224,82.554449
hospital,"Primary Health Centre, Pandari",25.0853783,82.7393347
hospital,Upkar Institute Of Paramedical Science,24.9376214,82.6707687
hospital,Sri Krishna Hospital,25.1425432,82.5651108
hospital,Prasad Hospital and Research Centre,25.2803953,82.4380605
hospital,Saket Hospital,25.2103729,82.7156593
hospital,Bal Karan Memorial Hospital,25.1847763,83.0125674
hospital,Aastha Multispeciality Hospital,26.7426003,83.371638
hospital,Satya Hospital and Maternity Centre,25.2068798,83.0273123
hospital,"KM's Hospital, Chunar",25.1104226,82.8726126
hospital,Gupta Heart & Medical Centre,26.7425175,83.3703124
hospital,Hope Super Speciality Hospital,26.7454403,83.3791661
hospital,Krishna Hospital,25.1529914,82.5785469
hospital,Surya Hospital,26.0482406,82.6817687
hospital,Maa Seeta Hospital and Fracture Clinic,25.143348,82.581004
hospital,Om Prakash Pandey Hospital,26.2999225,82.8015274
hospital,RG Hospital,26.7372178,83.5824469
hospital,Khamaria Hospital,25.2383227,82.5133362
hospital,Shree Siddhivinayak Hospital,25.2391447,82.2230086
hospital,Aziz Hospital,26.284537,83.5067026
hospital,Al-Razi Hospital,25.9575102,83.5458596
hospital,Amrawati Hospital,26.7372636,83.3626921
hospital,Children Hospital,26.0656671,83.3749465
hospital,Arogya Hospital,25.290846,82.4176048
hospital,Dwivedi Child Care,26.7292664,83.430271
hospital,Spectra Eye Centre,26.7366834,83.3682564
hospital,Gopal Hospital,25.1537386,82.583363
hospital,Shahi Global Hospital,26.7337911,83.3815504
hospital,Jeevan Raksha Hospital,25.7501958,82.7016531
hospital,Elite Hospital,25.1536954,82.582152
hospital,Ayush Surgical Hospital,24.8718535,82.8469068
hospital,Anand Hospital and Maternity Home,25.1527479,82.5803747
hospital,Shri Mata Hospital,25.14936,82.589644
hospital,City Hospital,25.1514288,82.5721034
hospital,Rachit Hospital,26.7409985,83.3797307
hospital,Metropolis Healthcare Ltd.,25.143625,82.5816
hospital,Shreya Hospital,25.1341609,82.5774038
hospital,Rahul Hospital,26.0672055,83.3860062
hospital,The Health City Hospital & Trauma Centre,25.404588,82.8889598
hospital,Raj Hospital,25.1954228,82.7543392
hospital,Deep Bandhu Hospital,26.3066885,83.0817227
hospital,Ramdhani Hospital,26.2834401,83.5139654
hospital,"SubCentre, Sahsepur",25.2396887,82.5400581
hospital,Mahila Swasthya Kendra,26.3682772,82.5121353
hospital,MIOTS,25.4231809,81.8207891
hospital,Prayag Medicare,25.4265647,81.8213236
hospital,"Sub Divisional Hospital, Mohania",25.1664533,83.6215685
hospital,"Government Hospital, Kalyanipur",24.9937965,83.4717772
hospital,"Government Hospital, Chand",25.1122912,83.4004126
hospital,"Government Hospital, Kot",24.8987622,81.726733
hospital,Rajput medical store,25.3419332,82.9965688
hospital,Bajrang Medical store,25.3418788,82.9965688
hospital,Maa Gouri hospital,25.3488532,82.9939339
hospital,ENT Clinic & Nursing Home,25.3096308,82.9869371
hospital,Omega Plus Hospital,25.2835693,82.9772326
hospital,saket hospital(old),25.4565604,81.8724457
hospital,Dental Hospital,25.2887662,82.9698746
hospital,Dr Agrahari Homeopathy,25.2866299,82.9697772
hospital,ram bahar hospital,25.4486124,81.8631387
hospital,yashraj clinic,25.4562645,81.8661688
hospital,alka hospital,25.4566907,81.8640202
hospital,saket nursing home,25.4479161,81.862758
hospital,Kahyap,25.2835644,82.9775989
hospital,Poornima Medical Shop,25.2881709,82.9530004
hospital,Sanjeevni Medical Shop,25.2867201,82.9478795
hospital,United Medicity,25.3962564,81.7567664
hospital,Bhawana Clinic,25.2445223,83.4079986
hospital,स्पर्श,25.2626063,82.9652149
hospital,डिलाइट अस्पताल,25.2561281,82.9595368
hospital,Dr Rishi KAnt Dubey,25.453546,81.8831234
hospital,"Excel Ortho Care, Shri Hari Pathology",26.7310723,83.3688339
hospital,Government Hospital,26.2748124,82.4672074
hospital,PRIMAX HOSPITAL,25.3709988,82.9226736
hospital,shikhar hospital,25.3727466,82.9217026
hospital,Innovia hospital,25.3683162,82.9278569
hospital,CHOOTE LAL BIND HOSPITAL,25.3382721,82.2593063
hospital,ALKA HOSPITAL,25.4610187,81.865585
hospital,NAV JEEVAN HOSPITAL,25.2840233,83.004049
hospital,Sandhya Hospital,26.2700771,82.4692236
hospital,Chitra Eye Hospital,26.3091812,82.7377445
hospital,Yogya Hospital,26.3136984,82.7414885
hospital,Ayush Clinic,26.3133581,82.7327127
hospital,Safal Hospital,26.309314,82.7421592
hospital,Manas Hospital,26.3103689,82.7379157
hospital,Ashok Clinic,26.3058316,82.73167
hospital,Kumar Hospital,26.3110962,82.743997
hospital,Aarogya Hospital,26.3144969,82.7394591
hospital,SURGERY GROUND,25.2585875,82.9906952
hospital,Suman Hospital,26.2728374,82.0760323
pharmacy,Balson and Sons,25.4570525,81.859844
pharmacy,Rama Pharmacy,25.4578081,81.8604743
pharmacy,Raj Medical Centre,25.455336,81.83498
pharmacy,Warshi medical store,26.3416975,82.8338832
pharmacy,J.K. Medical Store,25.2866254,83.0022485
pharmacy,Kesarwani Medical Store,25.3988819,81.8660657
pharmacy,Obligo Medical Store,25.3989323,81.866135
pharmacy,Kings & Co.,25.4506084,81.8347766
pharmacy,Mahesh Medical Store,25.4057037,81.8727756
pharmacy,Kirti Chemist,25.4507665,81.8347685
pharmacy,Apollo Pharmacy,25.260114,82.9840748
pharmacy,Maa Pitambra,25.4002398,81.8681375
pharmacy,Z.R. Medical Store,25.4367274,81.8227942
pharmacy,Astha Medical Store,25.3996331,81.8712613
pharmacy,New Jai Durga Enterprises,25.3996143,81.8710681
pharmacy,VAISHNAVI MEDICAL STORE,25.372645,82.9206447
pharmacy,ayurvedick store,25.3537948,82.9645101
pharmacy,shyam pharmacy,25.3534119,82.9660879
pharmacy,Rajendra Medical,25.2597613,82.9816132
pharmacy,APPOLO,25.2602222,82.9840375
pharmacy,Gaurav Medical Store,25.3924356,81.8632567
pharmacy,Aggarwal Medical Store,25.3925491,81.8611427
veterinary,Prayag Poultry Care Zone,25.4064042,81.8681171
cinema,BLW Cinema Hall,25.2862557,82.9618939
cinema,PVR Cinemas,25.4548463,81.8344064
cinema,Raj Cinema,26.3044123,83.0772909
cinema,IP Cinemas,25.3165471,82.9901107
cinema,Chandrlok,25.4379077,81.8442304
cinema,JHV Cinemas,25.3354881,82.9776355
cinema,Sajjan Cinema,25.3158755,82.9887006
cinema,Carnival Cinema PDR,25.3100623,83.002923
cinema,Mansarovar,25.4384929,81.8404756
cinema,IP Vijaya Mall Cinema Hall,25.297533,83.0010284
cinema,VKNS Cinemas,26.2666991,82.0748513
cinema,Palace Cinema,25.4501987,81.8323015
community_centre,Ganges nirvana,25.2949279,82.9727667
events_venue,Seminar Room,25.2626294,82.9917015
events_venue,G11 Auditorium,25.2611728,82.9924222
events_venue,Deepak Guest House,25.4009826,81.8682792
events_venue,Mother’s Lawn,25.3944963,81.8568354
events_venue,Band & Sons,25.399807,81.8670167
events_venue,ganpati Marriage Hall,26.7212364,83.3896312
events_venue,Rajnandini Restaurant & Banquet,26.7226795,83.3904189
events_venue,Royal Darbar,25.4523887,81.8329291
events_venue,Shubhanjali Palace,25.1324971,82.5776945
fountain,SVP Fountain,25.4464493,81.8691258
fountain,bank road crossing,25.468299,81.8546445
fountain,crossing,25.4699967,81.8624486
fountain,Palika fountain,26.2619951,82.0747101
fountain,Khurshid fountain,26.2650235,82.0748384
planetarium,Taramandal,26.7275476,83.3881223
social_centre,Coral Club,25.448026,81.824039
studio,Sangam Studio,26.2720811,82.4687186
fire_station,Fire Station,25.4478206,81.8398891
police,Chhajjapur Police Chowki,26.5556172,82.6569518
police,Chowk Police Station,25.4372308,81.8330585
police,"Mahmoorganj Police Station , Bhelupur,Varanasi.",25.3028749,82.9734357
police,Sikriganj Police Station,26.5030254,83.2004017
police,Rajesultanpur KOTWALI,26.3063088,83.0790391
police,Kedar Nagar Police station,26.5399454,82.546576
police,Mirzapur City Kotwali,25.1495833,82.5681398
police,Police Lines Allahabad,25.4626401,81.8432613
police,Police station Karchana,25.285155,81.935218
police,Water Police Varanasi,25.3071541,83.01041
police,BLW Police Chauki,25.2835162,82.9553915
police,Police Chowki Sunderpur,25.2842076,82.9694022
police,Sankat Mochan Police Chowki,25.2832348,82.9998126
police,Luxa Police Thana,25.3084651,82.9996617
police,allapur police chauki,25.4577599,81.869752
police,police chauki,25.353802,82.9660667
police,Police Chowki,25.4636452,81.8691271
police,PROCTOR BOOTH,25.2631683,82.9864439
police,police station,26.3098124,82.7379881
post_office,Allahabad City Post Office,25.441564,81.8358936
post_office,Indian Post,25.4659454,81.8643957
post_office,Rajesultanpur Post Office,26.3060617,83.0778299
post_office,new bairahana post office,25.4381821,81.857905
post_office,Post Office Railway Mail,25.3272515,82.9872035
post_office,India Post,25.3946463,81.8604901
post_office,Pratapgarh Head Post Office,25.9222593,81.9896706
post_office,India Post,25.2649609,82.9944309
post_office,BLW Post Office,25.2852466,82.9598616
post_office,Luxa Post Office,25.3087075,82.9996409
post_office,DTDC Courier,25.4025814,81.8702212
post_office,Post Office,26.3087278,82.7368962
post_office,Head Post Office sultanpur,26.2609438,82.0736675
toilets,सुलभ शौचालय,25.4190396,81.8205054
waste_disposal,AWP,25.4179287,81.8199845
animal_breeding,gaushala,25.2554619,82.9948113
animal_breeding,goat and sheep breeding,25.2559324,82.9946257
internet_cafe,"Net cafe for printing , form filling",25.3437407,82.9966106
internet_cafe,Shree cyber,25.3482738,82.993936
internet_cafe,Akshat internet cafe,25.4560944,81.8737773
internet_cafe,varun cafe,25.4567879,81.8748663
internet_cafe,pranjal cafe,25.4553824,81.8744632
internet_cafe,Computer Zone,25.2901157,82.9704394
internet_cafe,Xcellence Infotech,25.4023112,81.8664132
internet_cafe,Mishra internet Cafe,26.722343,83.3898255
internet_cafe,Blue Sky Cyber Cafe,26.2685688,82.0760403
marketplace,New Haq Market,26.5561719,82.6563797
marketplace,Kailash Prasad supermarket,25.3501552,82.9933813
marketplace,Modular kichen work,25.2884534,82.9720365
marketplace,Al Rashid Market,26.2759084,82.4718626
marketplace,Vegetable Market,26.2617238,82.0686512
marketplace,Chowk Ghanta Ghar,26.2607386,82.0699072
place_of_worship,संकट मोचन हनुमान मंदिर,25.2819915,82.9999112
place_of_worship,Baba Keenaram Ashram,25.2958918,83.0032762
place_of_worship,St Marys Church,25.3361364,82.9794466
place_of_worship,Lal Girja CNI Church,25.3366096,82.9830086
place_of_worship,Giant Buddha Statue,25.3776905,83.0213529
place_of_worship,Hanuman Temple,25.4282627,82.8899312
place_of_worship,Shree Shiv Mahavir Mandir,25.3025743,82.9732372
place_of_worship,Pracheen Hanumaan Mandir (Hindu Temple),25.2979523,82.9722126
place_of_worship,BABA BAIJUNATH TEMPLE,26.4987091,83.1939504
place_of_worship,Bhora Baba Temple,26.5146328,83.2083786
place_of_worship,Deeh Baba Worshipping Shrine,26.5100819,83.2149931
place_of_worship,Sidhheshwar Dham,25.9405942,81.9594536
place_of_worship,Saraswati Mandir,25.27516,83.0056573
place_of_worship,Old Temple,26.006196,82.6160474
place_of_worship,Barmaha baba,26.307754,83.0754486
place_of_worship,Altaf poultry farm,25.3227835,82.8735272
place_of_worship,New Bairhana Mosque,25.4383709,81.8576908
place_of_worship,kali mandir,25.4389135,81.8583305
place_of_worship,kali mai ka mandir,25.4395285,81.8611474
place_of_worship,PRAYAG प्रयाग,25.4430158,81.8669352
place_of_worship,Shrine Syed Makhdoom Ashraf Jahangir Samnani,26.4352202,82.7713412
place_of_worship,Gobind Sahab Temple,26.3563894,82.8750977
place_of_worship,Durga Temple,25.288607,82.9992738
place_of_worship,Brahmbaba Temple,25.9292913,83.5714005
place_of_worship,पादोदक तीर्थ,25.3293989,83.0442908
place_of_worship,Rohiteshwar Mandir,25.2801793,82.9909571
place_of_worship,The Cambodian Buddhist Monastery,25.3743563,83.0262568
place_of_worship,Old Gurudwara,25.0213422,83.0278224
place_of_worship,Sharda Maa Sthaan,25.4229332,81.8252101
place_of_worship,Shayri Mata Temple,25.3051794,82.9964414
place_of_worship,Nehru Ghat,25.4302038,81.8616448
place_of_worship,Baba Latif Shah Dargah,25.0213873,83.2427485
place_of_worship,Adikeshavmahadev Temple,25.2991916,83.0049025
place_of_worship,Maa Kashi Vishalakshi Temple,25.3099743,83.011962
place_of_worship,Shri Kashi Kaamkoteeshwar Mandir,25.2980456,83.0063908
place_of_worship,Shri Suparshvanath Bhagwan,25.2921104,83.0065838
place_of_worship,Sadhu kai Kuti (Kutiyawa),26.2485024,82.486561
place_of_worship,Dueoharin Mai,26.2522889,82.4881001
place_of_worship,Kali Mai,26.2530406,82.4911665
place_of_worship,Baram Baba,26.2508911,82.4870813
place_of_worship,Chaurasi Baba,26.1968246,82.2111794
place_of_worship,Mandawa (Hanuman Mandir),26.2453014,82.223769
place_of_worship,jamuneshwar mahadev mandir,25.4175267,81.8209209
place_of_worship,Pahalwaan Veer Baba,25.420068,81.8206816
place_of_worship,Shiv Baba Dham,26.4627908,82.4916842
place_of_worship,Shree Krishna Pranaami Mandir,25.4284062,81.8289071
place_of_worship,Maa Kalyani Devi Shakti Peeth,25.4315094,81.8340154
place_of_worship,Sarvan Dham,26.4437265,82.4697221
place_of_worship,Kardmeshwar Temple,25.2685343,82.9582801
place_of_worship,Bhimchandi Temple,25.2517365,82.8489246
place_of_worship,Shri Durg Vinayak Ganesh Temple,25.2886232,82.9999048
place_of_worship,Shri Senapathi Banakatti Hanuman Tmple,25.2885797,83.0004672
place_of_worship,Adi Keshav Temple,25.3291461,83.0429214
place_of_worship,Sheetla Mata Temple,25.2885325,82.9998897
place_of_worship,Vaisho Mata Temple,25.2885421,82.999788
place_of_worship,sultankeshwer,25.2125752,82.9546032
place_of_worship,Hanuman Temple,25.2680001,82.9834711
place_of_worship,Sai baba temple,25.3430568,82.9963122
place_of_worship,Maa Durga  Mandir,25.3411449,82.9968867
place_of_worship,Shri Daitra veer baba temple,25.3437837,82.9962581
place_of_worship,Mahakal Ka Mandir,25.340206,82.9964004
place_of_worship,Jama Masjid,25.3371169,82.9961796
place_of_worship,Chaura mata mandir,25.3367293,82.9962811
place_of_worship,Prachin shri chaura mata mandir,25.3380427,82.9950062
place_of_worship,Muchh wale Hanuman mandir,25.3353972,82.9963629
place_of_worship,shiv mandir,25.2538619,82.9550574
place_of_worship,ganesh ji mandir,25.7673297,82.6716149
place_of_worship,Bargad Ghat,25.4192682,81.8278972
place_of_worship,Jamia Darussalam,25.4247433,81.8070071
place_of_worship,Makkah Masjid,25.4254546,81.8073659
place_of_worship,MQ Islamic School Masjid,25.4241416,81.8051516
place_of_worship,Abu Hurayrah Masjid,25.4267819,81.8073823
place_of_worship,Dargah Sharif Manduadih,25.3013346,82.9685491
place_of_worship,Mission Church,25.3109299,82.9884042
place_of_worship,Shitala Mata Mandir,25.3095836,83.0041401
place_of_worship,Hanuman Temple,25.2988769,82.9698194
place_of_worship,HANUMAN MANDIR,25.4561194,81.8796682
place_of_worship,krishna mandir,25.4546917,81.8775094
place_of_worship,Attraction Point 3 (Shri Bade Hanuman Ji Mandir),25.4335836,81.879161
place_of_worship,akshay vat temple,25.4325314,81.8777211
place_of_worship,Attraction Point 4 (Shri Adi Shankar Vimana Mandapam),25.4351846,81.8795208
place_of_worship,st. john's church,25.4574805,81.844735
place_of_worship,ganesh mandir,25.4568935,81.8609538
place_of_worship,shyam mandir,25.4582853,81.8559853
place_of_worship,ram mandir,25.4478153,81.8631657
place_of_worship,jain mandir,25.457979,81.8600523
place_of_worship,shani mandir,25.4569247,81.8635781
place_of_worship,haji ali  dargaah,25.4564027,81.8652399
place_of_worship,Ramjiyawan Baba Mandir,25.2865254,82.9480827
place_of_worship,Bhaskar Shiv Madir,25.2936118,82.9366838
place_of_worship,SWAMI RUPESHWARANAND ASHRSM,25.4242281,83.1815431
place_of_worship,Ram Leela Ground,26.413781,82.7769246
place_of_worship,Yeshu Darbar,25.4188127,81.8501615
place_of_worship,Hanuman Mandir,25.3988608,81.87391
place_of_worship,ဗာရာဏသီကျောင်း,25.3899553,83.0220415
place_of_worship,Shiv Mandir,26.6860984,83.5957893
place_of_worship,mosque,25.3756015,81.8506643
place_of_worship,church,25.3760425,81.8501627
place_of_worship,shiva temple,25.3741256,81.8503015
place_of_worship,gurudwara,25.3783544,81.8475154
place_of_worship,Shiv temple,25.059742,83.6824123
place_of_worship,Temple,26.5399181,82.4133049
place_of_worship,nurani masjid,25.2063346,83.0753133
place_of_worship,ram janki temple,25.2025028,83.0762031
place_of_worship,bhul bhulaya temple,25.2063044,83.0852474
place_of_worship,pakwa nara,25.2037199,83.0803287
place_of_worship,Purani Dashmi ram temple,25.1378649,82.5711188
place_of_worship,Shri Ram Tek Temple,25.1380089,82.5712511
place_of_worship,Chetganjeshvar Mahadev Mandir,25.2230036,82.5113531
place_of_worship,चौरा माई का मंदिर,25.2587684,82.9622215
place_of_worship,Ratneshwar Mahadev Temple,25.3114543,83.0149345
place_of_worship,Shiva Temple,26.3460934,82.2357053
place_of_worship,Masjid of Babupur,25.550215,82.0819689
place_of_worship,Jhunsi Eid Gaah,25.4339155,81.9011858
place_of_worship,mosque,25.4887425,83.2411316
place_of_worship,Dih baba,25.4888697,83.2420135
place_of_worship,Shiv Temple,26.2757395,82.471526
place_of_worship,shree hanuman ji mandir,25.3723887,82.9217537
place_of_worship,Shiv Mandir,25.4842416,83.2453765
place_of_worship,Samme mata mandir,25.4873267,83.2427481
place_of_worship,shree bhagwan shankar mandir,25.3633341,82.9347098
place_of_worship,lakchu bramha baba,25.4293709,83.2128426
place_of_worship,deeh baba mandir,25.364911,82.9329633
place_of_worship,vishwanath ashram,25.3533244,82.9665653
place_of_worship,kali mata mndir,25.3535081,82.9644713
place_of_worship,kali mata mandir,25.4885449,83.2463816
place_of_worship,deeh baba temple,25.3543556,82.9670424
place_of_worship,Baba Kinaram mandir,25.4620368,83.2485682
place_of_worship,hanuman mandir,25.3536907,82.9663268
place_of_worship,Shiv Temple,26.2735626,82.4700889
place_of_worship,Nagvasuki temple,25.4567203,81.8834736
place_of_worship,SHIV TEMPLE,25.4580229,81.8751195
place_of_worship,Kali Maata Mandir,25.4645421,81.8669907
place_of_worship,Masjid Hashimpur,25.4615596,81.866378
place_of_worship,SHANI DEV MANDIR,25.4583919,81.8743161
place_of_worship,Durgakund,25.2866809,82.9969472
place_of_worship,masjid,26.3112698,82.7350706
place_of_worship,Mathia Mandir,26.3136846,82.7322377
place_of_worship,Mahadev Mandir,26.3138264,82.7345024
place_of_worship,Hanuman Mandir,26.3084103,82.7383497
place_of_worship,Hari,26.3076894,82.7422527
place_of_worship,Mata,26.3149909,82.7387628
place_of_worship,jai ho,26.3130068,82.7353394
place_of_worship,Janiki Mandir,26.3095214,82.7342327
place_of_worship,ananta mandir,26.307901,82.7388883
place_of_worship,Durga Mata Mandir,25.2798908,82.9872339
place_of_worship,VT BACKYARD,25.2658428,82.9871087
place_of_worship,Hanuman Mandir,26.2489347,82.0686288
place_of_worship,Hanuman Mandir,25.3084009,83.0104732
place_of_worship,Shiva Mandir,25.3082437,83.0110826
place_of_worship,Sita Mata Dham,25.7714538,82.3299511
place_of_worship,Sri Mahavir Ji Mandir Temple Bari Bagahin,25.2456972,83.3702127
place_of_worship,Shiv Temple,25.6389923,82.5605543
place_of_worship,Chaura Mata Mandir,25.6382313,82.5629849
place_of_worship,Attraction Point 1 (Sangam Ghat Prayagraj),25.4292236,81.8850181
place_of_worship,Attraction Point 2 (Ganga Ghat Prayagraj),25.4319911,81.8843915
place_of_worship,Attraction Point 5 (Triveni sangam boat bathing),25.4274773,81.8854753
place_of_worship,Attraction Point 6 (KULVRIKSH GANGA AARTI STHAL),25.4331562,81.8816203
place_of_worship,Attraction Point 7 (Bhagwan Adi Shankaracharya Ghat),25.4346428,81.883096
public_building,Sanjay Tower,25.455111,81.841404
bar,Lassi,25.4299814,81.8610072
bar,pravin bar,25.4583316,81.8639091
bar,aashish,25.4548525,81.8619289
bar,raju internationals,25.4571147,81.8656686
bar,beer bar mosowo,25.4492569,81.8578098
bar,Barcode,25.4550626,81.8349598
cafe,cyber cafe,25.4389955,81.8585493
cafe,jungle canteen,25.4943395,81.8624154
cafe,SHIVAM CAFE,25.4540569,81.8673507
cafe,sanam cafe,25.4554516,81.8633732
cafe,amitabh cafe,25.4515721,81.8720321
cafe,star world cafe,25.4517357,81.8723434
cafe,nilgiri cafe,25.4506044,81.8737826
cafe,prayagraj cafe,25.4456327,81.8830037
cafe,murli ram,25.4485167,81.8616121
cafe,nescafe,25.4483036,81.8583077
cafe,DEEPAK CANTEEN,26.1867562,81.680177
cafe,CAFE 96,25.4921714,81.8645434
cafe,Old School Cafe,25.4547275,81.8334642
cafe,Coffee Machine,25.4571116,81.8352448
cafe,Cafe Coffee Day,25.4524789,81.8369485
cafe,Parinda Cafe,25.4065675,81.8679108
cafe,The Rutba,24.542921,81.2967838
cafe,O-Cafe,26.2249032,81.240412
cafe,Nescafe,26.2240432,81.2405572
cafe,SUVISTO SHAKES,25.46223,81.8408364
cafe,MAHI CAFE,25.463838,81.859026
cafe,Pradeep Cafe,26.3117434,82.7330267
cafe,Chai Sutta Bar,26.2533939,82.0709106
cafe,Rasna Buzz,25.4554364,81.8346715
cafe,Starbucks,25.4526592,81.8340924
fast_food,McDonald's,25.4504642,81.8363247
fast_food,Softy Corner,25.4500252,81.8346828
fast_food,Tuck In,25.454238,81.834923
fast_food,Maurya Food shop,25.4638906,81.8685714
fast_food,kabab roll,25.4395737,81.8601102
fast_food,kinara cafe,25.4308661,81.8696222
fast_food,Night Food Market,25.4509157,81.8738052
fast_food,KFC,25.4494547,81.8396055
fast_food,bablu ka burger,25.4562764,81.8719369
fast_food,shivam dhaba,25.4546405,81.8748663
fast_food,manan k samose,25.4555483,81.8736007
fast_food,vivek,25.4560368,81.8637866
fast_food,akhil food,25.4516574,81.873604
fast_food,ashwin khana,25.451503,81.8740761
fast_food,aradhana pizza,25.4501805,81.8746119
fast_food,agnus,25.4644911,81.8497076
fast_food,F1  FOOD CORNER,25.4631397,81.8514024
fast_food,chinese special,25.4499854,81.8594878
fast_food,MAN LUBHAVNI,25.4571872,81.8562956
fast_food,Burger King,25.4547575,81.8348243
fast_food,Kamdhenu Sweets,25.45035,81.8323071
fast_food,Kushwaha Sweets And Namkeen,25.4016604,81.8692986
fast_food,Banarasi Chaat Bhandar,25.4518973,81.8349147
fast_food,Domino's,25.4499169,81.8342057
fast_food,Hari Ram & Sons,25.436335,81.8340632
fast_food,Shri Radhe Ras Kunj Sweet House,25.4364805,81.8340787
fast_food,Burger Games,25.3986363,81.8740825
fast_food,Amul,25.3985122,81.874378
fast_food,Domino's,25.4558061,81.8354896
fast_food,Pawan Namkeen,25.4364995,81.8409951
fast_food,Sulaki Lal Sri Nath & Sons,25.4364808,81.8410678
fast_food,Kamdhenu Confectionary,25.4530143,81.8367566
fast_food,Belgian Waffle Co,25.4525146,81.836957
fast_food,AGGRAHRI FAST FOOD,25.3797685,81.8461126
fast_food,Raj Sweets Shop,25.4646157,81.8665323
fast_food,DEENA NATH CORNER,25.4641834,81.8653992
fast_food,Banarasi Sweets,25.3940224,81.8609955
fast_food,Nirala Sweet House,25.4368027,81.8228033
fast_food,Pehelwan Juice Corner,25.4520481,81.8351929
fast_food,sonam fast food,26.3510197,82.2292754
fast_food,Deepak Fast Food Corner,26.2753346,82.4711766
fast_food,Rajendra chaat Corner,26.275178,82.4711322
fast_food,Burger Singh,26.2181935,81.2434028
fast_food,Nirvana Foods,25.46547,81.8715912
fast_food,Abhi fast food corner,25.4638403,81.8655001
