Amenity Type,Name,Latitude,Longitude,road,suburb,state_district
bar,jyoti,26.0703601,83.1808583,shiv temple,,Azamgarh
bar,Lassi,25.4299814,81.8610072,Naini Bridge,New Bairahana,Prayagraj
bar,Beer “Bar”,25.3088759,82.9993278,Luxa Road,,Varanasi
bar,Beer Bar,25.3092532,83.0026692,Luxa Road,,Varanasi
bar,Sol Bar,25.3387221,82.980089,The Mall Road,Cantonment,Varanasi
bar,Molecule - Varanasi,25.3035592,82.9761299,Raja Sir Motichand Road,,Varanasi
bar,Yelchiko Bar and Restaurant,25.3095133,82.9897179,Vidyapeeth Lanka Road,Cantonment,Varanasi
bar,pravin bar,25.4583316,81.8639091,Hashimpur Road,George Town,Prayagraj
bar,aashish,25.4548525,81.8619289,Jawaharlal Nehru Road,George Town,Prayagraj
bar,raju internationals,25.4571147,81.8656686,Hashimpur Road,George Town,Prayagraj
bar,beer bar mosowo,25.4492569,81.8578098,Hamilton Road,George Town,Prayagraj
bar,Barcode,25.4550626,81.8349598,Sardar Patel Marg,Civil Lines,Prayagraj
bar,CHEM DEPT BAR,25.2614529,82.9906851,Semi Circle RD,,Varanasi
cafe,Open Hand Shop and Café,25.2880028,83.0046032,Dumraon Colony Road,,Varanasi
cafe,Buddhu Tea Stall,26.5569604,82.6562059,Rajghat Road,,Ambedkar Nagar
cafe,Raees Tea Stall,26.5574714,82.6569801,Rajghat Road,,Ambedkar Nagar
cafe,Blue Lassi Shop,25.3123734,83.0113542,Tripura Bhairwi,,Varanasi
cafe,Niyati Cafe,25.3081571,83.0101627,Dashashwamedh Road,,Varanasi
cafe,cyber cafe,25.4389955,81.8585493,Defunct railway line,New Bairahana,Prayagraj
cafe,Maitri Jalpan Grih,25.2712044,82.9930809,Radial Road 5,,Varanasi
cafe,Shiva cafe & German bakery,25.30266,83.00726,Godowalia Lanka Road,,Varanasi
cafe,Ayyar's Cafè,25.3089017,83.007494,Dashashwamedh Road,,Varanasi
cafe,The Mark’s Café,25.2881479,83.0044397,Dumraon Colony Road,,Varanasi
cafe,Ashish’ Café,25.2894538,83.0061725,Assi Ghat Road,,Varanasi
cafe,Dosa Cafe,25.3084503,83.0103322,,,Varanasi
cafe,Shiva restaurant,25.2884351,83.0038522,Pandit Manmohan Malviya Road,,Varanasi
cafe,jungle canteen,25.4943395,81.8624154,NH30,Teliyarganj,Prayagraj
cafe,Nirman cafe,25.2784608,83.0055163,Ramnagar Road,,Varanasi
cafe,Vishnu Tea Emporium,25.3082151,83.010145,Dashashwamedh Road,,Varanasi
cafe,CAFE,25.2830628,83.0036434,11,,Varanasi
cafe,IIT Cafeteria,25.2604996,82.9914058,cafetaria gate road,,Varanasi
cafe,Varanasi cafe & restaurant,25.3091913,83.0118591,Tripura Bhairwi,,Varanasi
cafe,कशी कैफ़े,25.2881316,83.0049416,Assi Ghat Road,,Varanasi
cafe,लूसी'स हेरिटेज कैफ़े,25.3033262,83.0082942,Dashashwamedh Road,,Varanasi
cafe,The Dirty Chai Cafe,25.3062179,83.0090205,Dashashwamedh Road,,Varanasi
cafe,Kalika Dhaba,25.288114,83.0016205,Ravindrapuri Road,,Varanasi
cafe,Lucy's Cafe,25.3035255,83.0081913,Dashashwamedh Road,,Varanasi
cafe,Lucy's heritage cafe,25.303328,83.0083173,Dashashwamedh Road,,Varanasi
cafe,Teaquila,25.2877021,83.0066154,Assi Ghat Road,,Varanasi
cafe,The Chocolate Heaven,25.2935693,83.0021214,Ravindrapuri Road,,Varanasi
cafe,SHIVAM CAFE,25.4540569,81.8673507,Jawaharlal Nehru Road,George Town,Prayagraj
cafe,sanam cafe,25.4554516,81.8633732,Jawaharlal Nehru Road,George Town,Prayagraj
cafe,amitabh cafe,25.4515721,81.8720321,krishna kunj road,Allahpur,Prayagraj
cafe,star world cafe,25.4517357,81.8723434,krishna kunj road,Allahpur,Prayagraj
cafe,nilgiri cafe,25.4506044,81.8737826,krishna kunj road,Allahpur,Prayagraj
cafe,prayagraj cafe,25.4456327,81.8830037,"Daraganj, Kachhi sadak",Allahpur,Prayagraj
cafe,murli ram,25.4485167,81.8616121,Malviya Road,George Town,Prayagraj
cafe,nescafe,25.4483036,81.8583077,Hamilton Road,George Town,Prayagraj
cafe,CAFE 96,25.4921714,81.8645434,Chatham Lines,Old Cantonment,Prayagraj
cafe,Bowl of compassion,25.305784,83.0072379,Godowalia Lanka Road,,Varanasi
cafe,Old School Cafe,25.4547275,81.8334642,Tashkent Marg,Civil Lines,Prayagraj
cafe,Coffee Machine,25.4571116,81.8352448,Purushottamdas Tandon Marg,Civil Lines,Prayagraj
cafe,Cafe Coffee Day,25.4524789,81.8369485,Lal Bahadur Shastri Marg,Civil Lines,Prayagraj
cafe,Parinda Cafe,25.4065675,81.8679108,Mirzapur Road,Kharkauni,Prayagraj
cafe,Banarasi Chai Wala (Drinks ka daddy),25.2634417,82.9817728,g1 road,,Varanasi
cafe,CCD,25.2584148,82.9867973,Radial Road 11,,Varanasi
cafe,Dg  Corner,25.2631534,82.9867534,Radial Road 9,,Varanasi
cafe,banaarsi paan shop,25.2635427,82.9816794,g1 road,,Varanasi
cafe,COLD COFFEE,25.2656454,82.9888228,Semi Circle RD,,Varanasi
cafe,canteeen 1,25.2639917,82.9841062,cycle stand,,Varanasi
cafe,sn bose  canteen,25.2635531,82.9837997,cycle stand,,Varanasi
cafe,DG2 canteen,25.2635827,82.985313,Diagonal Rd,,Varanasi
cafe,SUVISTO SHAKES,25.46223,81.8408364,Stanley Road,Katra,Prayagraj
cafe,MAHI CAFE,25.463838,81.859026,,George Town,Prayagraj
cafe,CANTEEN2,25.2640003,82.9842197,cycle stand,,Varanasi
cafe,ROMAS CAFE DINNER,25.2813597,83.0032837,Pandit Manmohan Malviya Road,,Varanasi
cafe,chachi tea,25.2634197,82.9817711,g1 road,,Varanasi
cafe,Pradeep Cafe,26.3117434,82.7330267,Malipur Road,,Ambedkar Nagar
cafe,Kashirajchai,25.2604362,82.9816157,Semi Circle Road 6,,Varanasi
cafe,EC CAFE,25.2630879,82.9904318,Radial Road 9,,Varanasi
cafe,NOIVE CAFE,25.2631635,82.9848995,Radial Road 9,,Varanasi
cafe,JUICE CORNER,25.2630437,82.9832607,Semi Circle Road 5,,Varanasi
cafe,Chai Sutta Bar,26.2533939,82.0709106,Laksmanpur-Sastri Nagar Rd,,Sultanpur
cafe,Rasna Buzz,25.4554364,81.8346715,Tashkent Marg,Civil Lines,Prayagraj
cafe,Starbucks,25.4526592,81.8340924,Lal Bahadur Shastri Marg,Civil Lines,Prayagraj
fast_food,McDonald's,25.4504642,81.8363247,Subhash Chauraha,Civil Lines,Prayagraj
fast_food,Softy Corner,25.4500252,81.8346828,Subhash Chauraha,Civil Lines,Prayagraj
fast_food,Tuck In,25.454238,81.834923,Sardar Patel Marg,Civil Lines,Prayagraj
fast_food,Maurya Food shop,25.4638906,81.8685714,Bhola wali gali,Allahpur,Prayagraj
fast_food,Domino's,25.2972961,83.0010019,Durgakund Road,,Varanasi
fast_food,Bikanervala,25.2974007,83.0012414,Durgakund Road,,Varanasi
fast_food,kabab roll,25.4395737,81.8601102,Bank Road,New Bairahana,Prayagraj
fast_food,kinara cafe,25.4308661,81.8696222,Paade Ground Road,New Bairahana,Prayagraj
fast_food,Nonsense fast food,25.2962842,83.0001463,Durgakund Road,,Varanasi
fast_food,Night Food Market,25.4509157,81.8738052,krishna kunj road,Allahpur,Prayagraj
fast_food,Madhu Sagar,25.2890288,83.0037725,Pandit Manmohan Malviya Road,,Varanasi
fast_food,The Belgian Waffle,25.2996052,83.0012047,Durgakund Road,,Varanasi
fast_food,Maa Laxmi Dosa Corner,25.3067302,83.0093202,Dashashwamedh Road,,Varanasi
fast_food,McDonald's,25.3356916,82.9778522,The Mall Road,Cantonment,Varanasi
fast_food,Burger King,25.3359581,82.9771432,The Mall Road,Cantonment,Varanasi
fast_food,KFC,25.4494547,81.8396055,MG Marg,Civil Lines,Prayagraj
fast_food,Maharaja Fast Food,25.2800039,83.0030463,Pandit Manmohan Malviya Road,,Varanasi
fast_food,Pahalwan Lassi,25.2820758,83.0032302,Ravindrapuri Road,,Varanasi
fast_food,"Fulki, Golgapaa to eat",25.343571,82.996155,Premchand Road,Cantonment,Varanasi
fast_food,Mukhtar Chicken shop,25.3375274,82.9961847,Premchand Road,Cantonment,Varanasi
fast_food,KFC,25.3119632,82.9883947,Vidyapeeth Lanka Road,Cantonment,Varanasi
fast_food,Burger King,25.3164264,82.9897151,Patel Road,Cantonment,Varanasi
fast_food,Domino's,25.3165126,82.9900488,Patel Road,Cantonment,Varanasi
fast_food,McDonald's,25.3166111,82.9901884,Patel Road,Cantonment,Varanasi
fast_food,Keventers,25.2909115,83.0016358,Ravindrapuri Road,,Varanasi
fast_food,bablu ka burger,25.4562764,81.8719369,Bakshi Bandh,Allahpur,Prayagraj
fast_food,shivam dhaba,25.4546405,81.8748663,krishna kunj road,Allahpur,Prayagraj
fast_food,manan k samose,25.4555483,81.8736007,Bakshi Bandh,Allahpur,Prayagraj
fast_food,vivek,25.4560368,81.8637866,Hashimpur Road,George Town,Prayagraj
fast_food,akhil food,25.4516574,81.873604,krishna kunj road,Allahpur,Prayagraj
fast_food,ashwin khana,25.451503,81.8740761,krishna kunj road,Allahpur,Prayagraj
fast_food,aradhana pizza,25.4501805,81.8746119,krishna kunj road,Allahpur,Prayagraj
fast_food,agnus,25.4644911,81.8497076,Muir Road,Katra,Prayagraj
fast_food,F1  FOOD CORNER,25.4631397,81.8514024,Manmohan Park,Katra,Prayagraj
fast_food,chinese special,25.4499854,81.8594878,CY Chintamani Road,George Town,Prayagraj
fast_food,MAN LUBHAVNI,25.4571872,81.8562956,Pannalal Road,George Town,Prayagraj
fast_food,Burger King,25.4547575,81.8348243,Sardar Patel Marg,Civil Lines,Prayagraj
fast_food,Kamdhenu Sweets,25.45035,81.8323071,Stretchy Road,Civil Lines,Prayagraj
fast_food,Kushwaha Sweets And Namkeen,25.4016604,81.8692986,Arail Road,Arail,Prayagraj
fast_food,Banarasi Chaat Bhandar,25.4518973,81.8349147,Lal Bahadur Shastri Marg,Civil Lines,Prayagraj
fast_food,Domino's,25.4499169,81.8342057,Subhash Chauraha,Civil Lines,Prayagraj
fast_food,Hari Ram & Sons,25.436335,81.8340632,Loknath Road,Chowk,Prayagraj
fast_food,Shri Radhe Ras Kunj Sweet House,25.4364805,81.8340787,Loknath Road,Chowk,Prayagraj
fast_food,Burger Games,25.3986363,81.8740825,Chak Bhatahi Road,ADA Colony,Prayagraj
fast_food,Amul,25.3985122,81.874378,Chak Bhatahi Road,ADA Colony,Prayagraj
fast_food,Domino's,25.4558061,81.8354896,Tashkent Marg,Civil Lines,Prayagraj
fast_food,Pawan Namkeen,25.4364995,81.8409951,Grand Trunk Road,Chowk,Prayagraj
fast_food,Sulaki Lal Sri Nath & Sons,25.4364808,81.8410678,Grand Trunk Road,Chowk,Prayagraj
fast_food,Kamdhenu Confectionary,25.4530143,81.8367566,Lal Bahadur Shastri Marg,Civil Lines,Prayagraj
fast_food,Belgian Waffle Co,25.4525146,81.836957,Lal Bahadur Shastri Marg,Civil Lines,Prayagraj
fast_food,LC,25.2609084,82.9869136,Semi Circle Road 4,,Varanasi
fast_food,AGGRAHRI FAST FOOD,25.3797685,81.8461126,FCI Road,,Prayagraj
fast_food,Raj Sweets Shop,25.4646157,81.8665323,Band Road,Allahpur,Prayagraj
fast_food,DEENA NATH CORNER,25.4641834,81.8653992,Band Road,Allahpur,Prayagraj
fast_food,Banarasi Sweets,25.3940224,81.8609955,Naini Bazar Road,,Prayagraj
fast_food,Nirala Sweet House,25.4368027,81.8228033,Noorullah Road,Roshan Bagh,Prayagraj
fast_food,Pehelwan Juice Corner,25.4520481,81.8351929,Lal Bahadur Shastri Marg,Civil Lines,Prayagraj
fast_food,sonam fast food,26.3510197,82.2292754,NH128,,Sultanpur
fast_food,juice,25.2630278,82.9833066,Radial Road 9,,Varanasi
fast_food,Pizza Club,25.2626622,82.9816188,Radial Road 9,,Varanasi
fast_food,Shree Bakers,25.2622119,82.9816507,g1 road,,Varanasi
fast_food,sanjay chicken shop,25.2643405,82.9816314,Semi Circle Road 6,,Varanasi
fast_food,dr juice bar,25.3665042,82.9302561,NH31,,Varanasi
fast_food,Deepak Fast Food Corner,26.2753346,82.4711766,MDR113E,,Sultanpur
fast_food,LC CORNER,25.2606031,82.9869929,Semi Circle Road 4,,Varanasi
fast_food,LC CORNER,25.2607979,82.9869582,Semi Circle Road 4,,Varanasi
fast_food,Rajendra chaat Corner,26.275178,82.4711322,MDR113E,,Sultanpur
fast_food,Nirvana Foods,25.46547,81.8715912,Bhola wali gali,Allahpur,Prayagraj
fast_food,Abhi fast food corner,25.4638403,81.8655001,Band Road,Allahpur,Prayagraj
fast_food,SATWICK MESS,25.2616513,82.9840876,Semi Circle Road 5,,Varanasi
fast_food,Mochu Maggie Point,25.2629379,82.9817425,Radial Road 9,,Varanasi
fast_food,SANTOSH FAST FOOD CORNER,25.2628297,82.9817641,Radial Road 9,,Varanasi
fast_food,Bangs restaurant,25.2611611,82.9816341,Semi Circle Road 6,,Varanasi
fast_food,Vaishnavi Fast food,26.3117913,82.7310086,Malipur Road,,Ambedkar Nagar
fast_food,anu food,26.315143,82.7329784,MDR155E,,Ambedkar Nagar
fast_food,Jai,26.313073,82.7366084,MDR82E,,Ambedkar Nagar
fast_food,Gulab Juice,25.2594391,82.9816215,Radial Road 10,,Varanasi
fast_food,KFC,25.3357086,82.9774995,The Mall Road,Cantonment,Varanasi
fast_food,Sagar Fast Food,25.2590436,82.9813285,Radial Road 10,,Varanasi
fast_food,raja fast,26.315057,82.7369626,MDR155E,,Ambedkar Nagar
fast_food,masala fast food,26.315024,82.7399212,MDR155E,,Ambedkar Nagar
fast_food,FAST FOOD JUNCTION,25.2606102,82.9915022,cafetaria gate road,,Varanasi
fast_food,Subway,25.4555766,81.8340272,Tashkent Marg,Civil Lines,Prayagraj
fast_food,La Pino's Pizza,25.4555771,81.8340099,Tashkent Marg,Civil Lines,Prayagraj
fast_food,Pahalwan Juice Stuff,25.4320255,81.8224764,Noorullah Road,Roshan Bagh,Prayagraj
food_court,Food Court,25.3358667,82.9771484,The Mall Road,Cantonment,Varanasi
food_court,Momo Time,25.340922,82.996684,Premchand Road,Cantonment,Varanasi
food_court,Gitanjali Fast Food corner,25.3482585,82.9941681,Premchand Road,,Varanasi
food_court,Ak fast food,25.3739415,82.9179851,NH31,,Varanasi
food_court,om thandhai ghar,25.3736304,82.9188606,NH31,,Varanasi
food_court,360 Degree dining,25.3683573,82.9275623,NH31,,Varanasi
food_court,sanzha chulha,25.3695226,82.9255995,NH31,,Varanasi
food_court,VISHWA CANTEN,25.2620444,82.9838058,Semi Circle Road 5,,Varanasi
food_court,SATWIK MMESS Q,25.2616233,82.9841298,Semi Circle Road 5,,Varanasi
food_court,NEW GIRLS HOSTEL CANTEEN,25.2611439,82.9838851,Semi Circle Road 5,,Varanasi
ice_cream,Night Food Market,25.4510376,81.8737839,krishna kunj road,Allahpur,Prayagraj
ice_cream,Ice cream shop,25.3437312,82.9957353,Premchand Road,Cantonment,Varanasi
ice_cream,Rita Ice Cream Parlour,25.3255573,82.9925476,Patel Road,Cantonment,Varanasi
ice_cream,Baskin-Robbins,25.2904822,83.0018331,Ravindrapuri Road,,Varanasi
ice_cream,Amul Ice Cream Parlour,25.3040409,82.9771752,Raja Sir Motichand Road,,Varanasi
ice_cream,Lovely Icecream,26.2746039,82.472006,MDR113E,,Sultanpur
ice_cream,Robin & Baskin,25.4546929,81.8344152,Sardar Patel Marg,Civil Lines,Prayagraj
restaurant,Chatni,25.2941407,83.0050673,Pandit Manmohan Malviya Road,,Varanasi
restaurant,Marwadi Bhojanalay,25.311842,83.0109213,Tripura Bhairwi,,Varanasi
restaurant,Phulwari Restaurant,25.3099636,83.0071967,Dashashwamedh Road,,Varanasi
restaurant,Pizzeria Vaatika,25.289353,83.0060414,Assi Ghat Road,,Varanasi
restaurant,Karki's Restaurant,25.2882184,83.0053907,Assi Ghat Road,,Varanasi
restaurant,Kerala Cafe,25.2997186,83.001183,Durgakund Road,,Varanasi
restaurant,I:ba,25.2963844,83.0038952,Godowalia Lanka Road,,Varanasi
restaurant,Madhu Bahar,25.2886758,83.0039218,Pandit Manmohan Malviya Road,,Varanasi
restaurant,Star Hotel,25.3084967,83.009266,Dashashwamedh Road,,Varanasi
restaurant,Madhur Milan Cafe,25.3085405,83.0097158,Dashashwamedh Road,,Varanasi
restaurant,Hot Stuff,25.4527005,81.8346442,Lal Bahadur Shastri Marg,Civil Lines,Prayagraj
restaurant,SAGAR RATNA,25.4572438,81.8600908,Hashimpur Road,George Town,Prayagraj
restaurant,Bridges Restaurant,25.4539899,81.8348188,Sardar Patel Marg,Civil Lines,Prayagraj
restaurant,SHRI Guest House,25.3069623,83.0098553,Dashashwamedh Road,,Varanasi
restaurant,Spicy Bites,25.3051585,83.0081148,Dashashwamedh Road,,Varanasi
restaurant,Apex,25.3089237,83.0121258,Tripura Bhairwi,,Varanasi
restaurant,JIOM Resturnt,26.3073222,83.0722656,Baskhari Jahangirganj Rajesultanpur Road,,Ambedkar Nagar
restaurant,Gokul,26.6245265,83.3836093,NH24,,Gorakhpur
restaurant,Ganpati,25.309108,83.0122192,exit(kashi temple),,Varanasi
restaurant,kanjurmarg,26.0698073,83.1809162,shiv temple,,Azamgarh
restaurant,gopals,26.0699991,83.1809873,shiv temple,,Azamgarh
restaurant,New Baba,25.3049914,83.008162,Dashashwamedh Road,,Varanasi
restaurant,The Keshari,25.3092903,83.0076598,Dashashwamedh Road,,Varanasi
restaurant,Ganga Fuji,25.3096482,83.0109745,Tripura Bhairwi,,Varanasi
restaurant,Megu Cafe,25.3103371,83.0098353,Tripura Bhairwi,,Varanasi
restaurant,Shiva Restaurant,25.2884268,83.0038878,Pandit Manmohan Malviya Road,,Varanasi
restaurant,Midway Treat Restaurant,24.9230633,81.6863035,NH30,,Rewa
restaurant,Shree Café,25.3079671,83.0100512,Dashashwamedh Road,,Varanasi
restaurant,Nepali,25.3083577,83.0096147,Dashashwamedh Road,,Varanasi
restaurant,Banarasi Tadka,25.29116,83.0043433,Pandit Manmohan Malviya Road,,Varanasi
restaurant,Kashi Chat,25.309354,83.0062499,Luxa Road,,Varanasi
restaurant,Roma's Cafe Diner,25.2812969,83.0031147,Pandit Manmohan Malviya Road,,Varanasi
restaurant,Salt & Pepper Food Hun,25.2941027,83.0047932,Pandit Manmohan Malviya Road,,Varanasi
restaurant,Royal,25.3347023,82.9798741,Nathusingh Road,Cantonment,Varanasi
restaurant,Shakti dhaba,25.2965602,82.4048177,NH19,,Sant Ravidas Nagar
restaurant,Aum Cafe - Organic Food 10/10!,25.289363,83.0056019,Assi Ghat Road,,Varanasi
restaurant,Kapachino,25.3042274,83.0075314,Godowalia Lanka Road,,Varanasi
restaurant,Raga cafe,25.31117,83.0134979,exit(kashi temple),,Varanasi
restaurant,Everest Cafe Momo Corner Restaurant,25.2968027,83.0070471,Godowalia Lanka Road,,Varanasi
restaurant,Itihaas-Alley Restaurant,25.2883186,83.0042819,Dumraon Colony Road,,Varanasi
restaurant,Angeethee Resturant,25.2872587,83.005015,Dumraon Colony Road,,Varanasi
restaurant,Night Food Market,25.4513777,81.8738372,krishna kunj road,Allahpur,Prayagraj
restaurant,BBC restaurant and hotel,25.2787574,83.0025286,Pandit Manmohan Malviya Road,,Varanasi
restaurant,Prayag Dhaba,25.4244733,81.9549917,NH19,,Prayagraj
restaurant,Dolphin Restaurant,25.3081958,83.0111787,Tripura Bhairwi,,Varanasi
restaurant,Sha,25.3133005,83.0046481,Nai Sarak Road,,Varanasi
restaurant,Carvaan Cafe & Restaurant,25.2881951,83.0052254,Assi Ghat Road,,Varanasi
restaurant,Deena Chat Bhandar,25.3090691,83.0023133,Luxa Road,,Varanasi
restaurant,Hangout,25.293813,83.0000413,Durgakund Road,,Varanasi
restaurant,Kerala Ganges,25.3087471,83.0115043,Tripura Bhairwi,,Varanasi
restaurant,Rahi Restaurant,25.4247331,81.9560108,NH19,,Prayagraj
restaurant,Canton Royale Restaurant,25.3390821,82.979916,The Mall Road,Cantonment,Varanasi
restaurant,Sagar Ratna,25.2813819,83.0032224,Pandit Manmohan Malviya Road,,Varanasi
restaurant,Bindass Restaurant,25.2623493,82.981643,Semi Circle Road 6,,Varanasi
restaurant,Sri Annapurna Restaurent,25.3099294,82.9887763,SIgra Mahmourganj Road,,Varanasi
restaurant,Pind Baluchi,25.3089162,82.9909262,Vidyapeeth Lanka Road,Cantonment,Varanasi
restaurant,Pink - The Colour Cafe,25.3089194,82.9909466,Vidyapeeth Lanka Road,Cantonment,Varanasi
restaurant,Kasora Restaurant,25.3010722,82.9558356,Raja Moti Chand Road,,Varanasi
restaurant,Chicago Pizza,25.3006423,82.9692811,SH74,Bhullanpur,Varanasi
restaurant,Bengal Sweet House,25.284004,82.9693379,University Road,Bhullanpur,Varanasi
restaurant,Rasna Family Restaurant,25.3070834,82.9919506,Guru Nanak Road,,Varanasi
restaurant,Kovil Restaurant,25.3119674,82.9867677,Vidyapeeth Lanka Road,Cantonment,Varanasi
restaurant,The Yellow Chilli,25.3055163,82.9810198,SIgra Mahmourganj Road,,Varanasi
restaurant,Ambrosia,25.2777473,82.9672239,BLW Road,Bhullanpur,Varanasi
restaurant,Mehfil,25.2866939,83.0017022,Ravindrapuri Road,,Varanasi
restaurant,Banaras Sweet House and Bhojanalaya,25.2789746,82.9987794,BHU DLW Road,,Varanasi
restaurant,Capsicum,25.2802842,83.0026685,Pandit Manmohan Malviya Road,,Varanasi
restaurant,VNS Live Studio,25.3182588,82.9916193,Patel Road,Cantonment,Varanasi
restaurant,Wife on Leave,25.3211342,82.9911781,Patel Road,Cantonment,Varanasi
restaurant,Machan,25.2877642,82.9692105,SH74,Bhullanpur,Varanasi
restaurant,The Taste Factory,25.3058219,82.9859362,Rathyatra Mahmoorganj Road,,Varanasi
restaurant,Ksheer Sagar,25.3113365,82.9892046,Vidyapeeth Lanka Road,Cantonment,Varanasi
restaurant,Crystal Bowl,25.2903842,83.0018114,Ravindrapuri Road,,Varanasi
restaurant,Ksheer Sagar,25.2932557,83.0024791,Ravindrapuri Road,,Varanasi
restaurant,Parthos,25.305214,82.9792966,Raja Sir Motichand Road,,Varanasi
restaurant,Ksheer Sagar,25.3161738,82.9678179,NH731B,,Varanasi
restaurant,ajay dhaba,25.4555483,81.8746979,Bakshi Bandh,Allahpur,Prayagraj
restaurant,shaloo foods,25.4561013,81.8710948,Bakshi Bandh,Allahpur,Prayagraj
restaurant,sheenu chaat,25.4571289,81.8736109,Bakshi Bandh,Allahpur,Prayagraj
restaurant,juli restaraunt,25.4512381,81.8726547,krishna kunj road,Allahpur,Prayagraj
restaurant,Bhagirathi Food Plaza,25.2893311,82.9694725,SH74,Bhullanpur,Varanasi
restaurant,shkib,25.4568659,81.8651072,Hashimpur Road,George Town,Prayagraj
restaurant,sagar ratna,25.448168,81.8612474,Malviya Road,George Town,Prayagraj
restaurant,maharani  zayka,25.4498963,81.8626464,Jawaharlal Nehru Road,George Town,Prayagraj
restaurant,balaji,25.4587024,81.8568297,Pannalal Road,George Town,Prayagraj
restaurant,ramada,25.458673,81.8587279,,George Town,Prayagraj
restaurant,kahna shyam,25.4565644,81.8598892,Jawaharlal Nehru Road,George Town,Prayagraj
restaurant,Banaras Sweet House,25.2691284,82.9826179,Semi Circle Road 6,,Varanasi
restaurant,Singh's Delight Restaurant,25.26154,82.9814667,Semi Circle Road 6,,Varanasi
restaurant,Subway Varanasi,25.2947217,83.0001728,Durgakund Road,,Varanasi
restaurant,Ice dew ice cream,25.2950226,83.0005599,Durgakund Road,,Varanasi
restaurant,The Arabic Cafe,25.2949796,83.0006753,Durgakund Road,,Varanasi
restaurant,Nonsense Fast Food,25.2965454,82.9991854,Peace point Road,,Varanasi
restaurant,breakfast centre,25.0182224,82.3601259,Vijaypur Road,,Mirzapur
restaurant,Forty Wings,25.4033317,81.8682416,Rudra Road,Kharkauni,Prayagraj
restaurant,Kadir Sweets,25.4029389,81.8691933,Mirzapur Road,Kharkauni,Prayagraj
restaurant,Shaam Restaurant,25.4071555,81.8674795,Mirzapur Road,Kharkauni,Prayagraj
restaurant,Alveena Food City,25.4012194,81.8689299,Mirzapur Road,Kharkauni,Prayagraj
restaurant,Sethi Punjabi Dhaba,25.3907765,81.8627541,Naini Station Road,Kharkauni,Prayagraj
restaurant,Pizza Hut,25.4505795,81.8304807,Clive Road,Civil Lines,Prayagraj
restaurant,Tandoor,25.450402,81.8315022,MG Marg,Civil Lines,Prayagraj
restaurant,Busybee,25.4026598,81.8686437,Rudra Road,Kharkauni,Prayagraj
restaurant,Higgins IX CI,25.4110742,81.8429396,Mahewa-Rewa Marg,,Prayagraj
restaurant,Habib Hotel,25.3990652,81.8632979,FCI Road,Kharkauni,Prayagraj
restaurant,Mishthi,25.3997775,81.8670336,Mirzapur Road,Kharkauni,Prayagraj
restaurant,BIKANER,25.451436,81.8324604,Strachey Road,Civil Lines,Prayagraj
restaurant,Pizza Hut,25.4559442,81.8355087,Tashkent Marg,Civil Lines,Prayagraj
restaurant,शिवांगी लंच हाउस,25.3053215,82.9925403,Rathyatra Mahmoorganj Road,,Varanasi
restaurant,Shanti Restaurant,25.3048518,83.0077197,Dashashwamedh Road,,Varanasi
restaurant,Jyoti Cafe,25.3056593,83.0086228,Dashashwamedh Road,,Varanasi
restaurant,Rustic Kitchen,25.4571074,81.8352164,Purushottamdas Tandon Marg,Civil Lines,Prayagraj
restaurant,Curry Leaf,25.455148,81.8374386,Tashkent Marg,Civil Lines,Prayagraj
restaurant,Kailash Parbat,25.4519558,81.8349982,Lal Bahadur Shastri Marg,Civil Lines,Prayagraj
restaurant,CHICAGO PIZZA,25.4520503,81.8352836,Lal Bahadur Shastri Marg,Civil Lines,Prayagraj
restaurant,Royal Castle,25.4065503,81.8679293,Mirzapur Road,Kharkauni,Prayagraj
restaurant,New Zaika,25.4025606,81.8695416,Arail Road,Kharkauni,Prayagraj
restaurant,Al Zaika,25.4023521,81.8695444,Mirzapur Road,Kharkauni,Prayagraj
restaurant,Mustfa Chicken Biryani,25.4029997,81.8692041,Mirzapur Road,Kharkauni,Prayagraj
restaurant,AM 2 PM Restaurant,25.2595214,82.9815196,Radial Road 10,,Varanasi
restaurant,Relish Scoop Bar and Cafe,25.2634152,82.9817206,g1 road,,Varanasi
restaurant,Clock Tower,26.2753215,82.4711415,MDR113E,,Sultanpur
restaurant,Underground Cafe,26.2752273,82.4714497,MDR113E,,Sultanpur
restaurant,Abhisek Fastfood Corner,26.2714313,82.4679498,MDR113E,,Sultanpur
restaurant,Cimaya,25.2638528,82.9815187,g1 road,,Varanasi
restaurant,kavyanjali sweet house,25.2635938,82.9816088,g1 road,,Varanasi
restaurant,sheik chill small shop,25.2635759,82.9816356,g1 road,,Varanasi
restaurant,foodie friend's,25.2649386,82.9817699,Semi Circle Road 6,,Varanasi
restaurant,NH 56 hotel,25.3546362,82.9656729,NH31,,Varanasi
restaurant,sagar bhojanalay,25.3547741,82.9660329,NH31,,Varanasi
restaurant,dosa crush,25.354618,82.966059,NH31,,Varanasi
restaurant,mahadev nariyal pani,25.3546448,82.9655978,NH31,,Varanasi
restaurant,new lucknow biryani,25.3545406,82.9660654,NH31,,Varanasi
restaurant,KVS (food court),25.2636939,82.9815272,g1 road,,Varanasi
restaurant,Ratnasagar,25.4642037,81.8697354,Bhola wali gali,Allahpur,Prayagraj
restaurant,Hot Pizza Ace,25.4633995,81.8649332,Band Road,Allahpur,Prayagraj
restaurant,Anjali Restaurant,25.4623529,81.8663355,Band Road,Allahpur,Prayagraj
restaurant,champaran meat house,25.2635514,82.98166,g1 road,,Varanasi
restaurant,Sangam Bhauri Chokha Corner,26.2713297,82.4674623,MDR66E,,Sultanpur
restaurant,jaiswal dosa,25.4463673,81.8521893,MG Marg,Bairhana,Prayagraj
restaurant,Kashi Restaurant,25.27994,82.9922718,BHU DLW Road,,Varanasi
restaurant,Paprika Food Court,25.2796698,83.0030165,Pandit Manmohan Malviya Road,,Varanasi
restaurant,Sunbeam Bhagwanpur Canteen,25.2732741,83.0013881,Diagonal Road,,Varanasi
restaurant,Banarsi Biryani,25.2894898,83.0013967,Ravindrapuri Road,,Varanasi
restaurant,Chicken Shwawarma Wala,25.2894782,83.0013667,Ravindrapuri Road,,Varanasi
restaurant,Aman-e-Khas,25.2970064,83.0023604,Ravindrapuri Road,,Varanasi
restaurant,Western Street n Cafe,25.2881654,83.001401,Ravindrapuri Road,,Varanasi
restaurant,Champaran Meat House,25.28839,83.0017394,Ravindrapuri Road,,Varanasi
restaurant,Waah Mumbai!,25.2911695,83.0013304,Ravindrapuri Road,,Varanasi
restaurant,Lucky Restaurent,26.3131277,82.7334572,MDR155E,,Ambedkar Nagar
restaurant,Anu food,26.3126076,82.7416851,MDR82E,,Ambedkar Nagar
restaurant,Raj bhojnalya,26.3091471,82.7429973,MDR82E,,Ambedkar Nagar
restaurant,G,26.3117197,82.7337101,MDR155E,,Ambedkar Nagar
restaurant,Nate Bhoj,26.309185,82.7426841,MDR82E,,Ambedkar Nagar
restaurant,Anand food,26.3132223,82.7350224,MDR155E,,Ambedkar Nagar
restaurant,Tasty foody,26.3128732,82.7391876,MDR82E,,Ambedkar Nagar
restaurant,AM2PM RESTAURANT,25.2602834,82.9815127,Radial Road 10,,Varanasi
restaurant,*,26.3146034,82.7347176,MDR155E,,Ambedkar Nagar
restaurant,masti,26.3150284,82.7426925,MDR155E,,Ambedkar Nagar
restaurant,Raju Dhaba,26.3141557,82.7391961,MDR155E,,Ambedkar Nagar
restaurant,Masala Restaurent,26.3134044,82.7376214,MDR155E,,Ambedkar Nagar
restaurant,Yadav restaurent,26.310164,82.7368172,MDR82E,,Ambedkar Nagar
restaurant,Lata food,26.3078873,82.7368764,MDR82E,,Ambedkar Nagar
restaurant,Swadistya,26.3088435,82.7380955,MDR82E,,Ambedkar Nagar
restaurant,YUM,26.308206,82.7408724,MDR82E,,Ambedkar Nagar
restaurant,Popular Bati Chokha,25.3115714,82.9877375,Vidyapeeth Lanka Road,Cantonment,Varanasi
restaurant,Pizza Hut,25.3357406,82.9776527,The Mall Road,Cantonment,Varanasi
restaurant,Barbeque Nation,25.3356607,82.97747,The Mall Road,Cantonment,Varanasi
restaurant,EC RESTURANT 2,25.2629243,82.99085,Civil Engineering Road,,Varanasi
restaurant,NEW CAFE AND RESTURANT,25.2606975,82.9914443,cafetaria gate road,,Varanasi
restaurant,Awantika Restaurant,26.2654591,82.0733727,Faizabad-Sultanpur road,,Sultanpur
restaurant,La pino'z pizza,26.2641184,82.0744097,Pant Stadium Road,,Sultanpur
restaurant,Shrvn Bati Choke,26.2632883,82.0713928,GN ROAD,,Sultanpur
restaurant,Khawaza fire works,26.2609116,82.0731751,GN ROAD,,Sultanpur
restaurant,Rahul Special Momos,26.2640745,82.0740397,Pant Stadium Road,,Sultanpur
restaurant,Janta restaurant,26.2754207,82.0775066,Sultanpur - Kadipur Road,,Sultanpur
restaurant,Mela Restaurant,25.451402,81.8348756,Subhash Chauraha,Civil Lines,Prayagraj
restaurant,Dhaba Special,25.2666213,82.4916082,NH19,,Sant Ravidas Nagar
restaurant,Fika,25.4492806,81.8396079,Kamla Nehru Road,Civil Lines,Prayagraj
restaurant,The Indian Food Plaza,25.3921262,81.8637123,Mirzapur Road,Kharkauni,Prayagraj
restaurant,Haldiram Bhujiawala,25.4555439,81.8341134,Tashkent Marg,Civil Lines,Prayagraj
restaurant,William John's Pizza,25.4552933,81.8350288,Sardar Patel Marg,Civil Lines,Prayagraj
restaurant,CAFÉ 60 FEET,25.4310062,81.8035913,Rajroopur Road (60 feet Rd),Chakia,Prayagraj
restaurant,Luv Kush,25.2998813,83.0022412,Durgakund Road,,Varanasi
restaurant,Sol Cafe by Mark's Cafe-Diner,25.3033865,83.0082679,Dashashwamedh Road,,Varanasi
restaurant,Baba Dhaba And Restaurant,25.3557289,81.8345556,NH30,,Prayagraj
restaurant,Muktanand Restaurant,25.4520214,81.8325737,Strachey Road,Civil Lines,Prayagraj
restaurant,Pind Balluchi,25.4523915,81.8329197,Strachey Road,Civil Lines,Prayagraj
restaurant,Basu's Kitchen,25.4556441,81.8356801,Tashkent Marg,Civil Lines,Prayagraj
restaurant,Aryan,25.454654,81.8348355,Sardar Patel Marg,Civil Lines,Prayagraj
college,MM PG College,26.3070818,83.0795827,SABITPUR RAJESULTANPUR ROAD,,Ambedkar Nagar
college,GDBinani PG College Mirzapur,25.1347712,82.5837674,Varanasi Road,,Mirzapur
college,Mahabodhi International College,25.3783973,83.0284798,Station Road,,Varanasi
college,ECC,25.4278749,81.845574,Gaughat Road,Roshan Bagh,Prayagraj
college,Jamuna christian Inter College,25.4269006,81.8424545,Gaughat Road,Roshan Bagh,Prayagraj
college,Banaras Hindu University (BHU) Rajiv Gandhi South Campus,25.0474623,82.5955628,Mirzapur - Ghorawal Road,,Mirzapur
college,St Anthony Inter College,25.9220681,81.9871872,Kamla Gang Bazar Marg,,
college,KP Hindu Inter College,25.9245794,81.9958664,Eidgah Road,,
college,DAV Inter College,25.9153964,81.9857777,Katra Road,,
college,IshawarDeen chhedilal Inter College,25.2824656,81.7837182,NH35,,Prayagraj
college,संपूर्णानंद संस्कृत विश्वविद्यालय,25.3303886,82.9978847,Sanskrit University Road,Cantonment,Varanasi
college,Chhatrapati Sahu Ji Maharaj Government Polytechnic,26.4618757,82.4899247,NH135A,,Ambedkar Nagar
college,Government Polytechnic Baijpur Bhiti,26.4413875,82.4677355,,,Ambedkar Nagar
college,Dev Indravati PG Collage,26.3838773,82.5193776,MDR113E,,Ambedkar Nagar
college,HCPG COLLEGE,25.3198258,83.0123819,St. Kabir Road,,Varanasi
college,school,25.3167154,82.9760693,GT Road,Cantonment,Varanasi
college,Tulsi Niketan Balika inter college,25.3450274,82.9938601,Premchand Road,Cantonment,Varanasi
college,Satyawati Degree College,26.4225938,82.4032429,NH128,,Ambedkar Nagar
college,Mahamaya College of Agricultural Engineering & Technology,26.4590776,82.4927909,NH135A,,Ambedkar Nagar
college,Dr.A.P.J. Abdul Kalam Polytechnic College,25.4021586,81.8661369,FCI Road,Kharkauni,Prayagraj
college,har har mahadev mahila mahavidhalay,25.2036864,83.0722071,SH-98,,Mirzapur
college,Rajputana Ground,25.2623596,82.985774,Radial Road 9,,Varanasi
college,kashi krishak inter college,25.3746276,82.915698,NH31,,Varanasi
college,MNNIT FIELD,25.4934602,81.8659358,NH30,Teliyarganj,Prayagraj
college,AU CRICKET GROUND,25.460677,81.8507455,Gulati Marg,Katra,Prayagraj
college,AU HOCKEY FIELD,25.45912,81.8516844,Gulati Marg,Katra,Prayagraj
college,AU FOOTBALL GROUND,25.459239,81.8508497,Thornhill Road,Katra,Prayagraj
college,KPUC GATE,25.463824,81.860378,NH30,George Town,Prayagraj
college,HERITAGE COLLEGE OF NURSING,25.2782809,83.00408,Ramnagar Road,,Varanasi
college,Radiant College,26.3111095,82.732286,Malipur Road,,Ambedkar Nagar
college,United Institute of Medical Sciences,25.397572,81.757321,Road To Shahapur,Jhalwa,Prayagraj
kindergarten,SP Memorial Primary School,25.46388,81.863747,Bank Road,Katra,Prayagraj
kindergarten,Fancier Kids,25.2872422,83.0042721,Dumraon Colony Road,,Varanasi
library,साइबर लाइब्रेरी,25.2689057,82.9930785,Radial Road 8,,Varanasi
library,Prakhar Library,25.4634204,81.8694258,Bhola wali gali,Allahpur,Prayagraj
library,Vinayak Digital Library,25.4624131,81.8660854,Band Road,Allahpur,Prayagraj
library,Vivekananda Library,26.3143395,82.7422626,MDR155E,,Ambedkar Nagar
library,Study IQ,26.3069148,82.7371449,Tahapur Road,,Ambedkar Nagar
library,Focus,26.3145414,82.7328641,MDR155E,,Ambedkar Nagar
library,Vinaayak Mehta Library,26.2642691,82.0750796,Pant Stadium Road,,Sultanpur
library,GIC LIBRARY,26.2635463,82.0717077,Faizabad-Sultanpur road,,Sultanpur
research_institute,J C BOSE RESEARCH INSTITUTE,25.4575978,81.857252,NH30,George Town,Prayagraj
training,Krishna Coaching Institute,25.4653342,81.8617836,NH30,George Town,Prayagraj
school,High School,25.4297882,83.6153342,Phooli road,,Ghazipur
school,sun rise public school,25.4287613,83.6200754,Phooli road,,Ghazipur
school,Avadh Public School,26.5586229,82.6545141,Rajghat Road,,Ambedkar Nagar
school,Poorva Madhyamik Vidyalaya,26.0117004,82.6200762,NH319D,,Jaunpur
school,Bal Shiksha Niketan,26.5529657,82.656186,Tanda-Faizabad Road,,Ambedkar Nagar
school,VIDDESWAR ACADMY,26.2653894,82.6694487,NH135A,,Ambedkar Nagar
school,public shool,25.2903508,83.0047674,Pandit Manmohan Malviya Road,,Varanasi
school,mahila sewa sadan inter college,25.4392297,81.8598465,Bank Road,New Bairahana,Prayagraj
school,G C STUDY POINT,25.4427989,81.8606813,MG Marg,Bairhana,Prayagraj
school,Shaharyar Beg Inter College,26.6031814,82.5497856,Maya-Tanda Road,,Ambedkar Nagar
school,Primary School,25.3988181,81.8624972,FCI Road Flyover (Malhar Fatak Flyover),,Prayagraj
school,Jagat Taran Golden Jubilee School,25.4539878,81.8589719,Hamilton Road,George Town,Prayagraj
school,Martha Root Montessori School,25.3361135,82.9764097,Kennedy Road,Cantonment,Varanasi
school,Sarswan Middle School,26.2547775,82.4913004,Sarswan Road,,Sultanpur
school,Sarswan Primary School,26.2506935,82.4888657,Sarswan Road,,Sultanpur
school,Ram Baran Singh Mahila Maha Vidyalaya,26.2652428,82.4900412,MDR66E,,Sultanpur
school,Swarg. Raj Singh Inter Collage (Janta Inter Collage),26.2100234,82.2161681,Belahari Road,,Sultanpur
school,primary School,26.3680777,82.5120575,MDR113E,,Ambedkar Nagar
school,St. Thomas School Gyanpur,25.3416207,82.4801506,Prabhat International Road,,Sant Ravidas Nagar
school,Prathmik Shiksha Kendra,26.4437242,82.4600858,,,Ambedkar Nagar
school,ज्ञानदीप अकादमी,25.2674852,82.965968,Chunar Road,Bhullanpur,Varanasi
school,Oxford street convent school,25.3429537,82.9966609,Premchand Road,Cantonment,Varanasi
school,Little lions school,25.3426135,82.9977301,Premchand Road,Cantonment,Varanasi
school,J R S Coaching,25.3451685,82.9939255,Premchand Road,Cantonment,Varanasi
school,Saraswati Shishu Mandir,25.4232958,81.8231352,Noorullah Road,Roshan Bagh,Prayagraj
school,MQ Islamic School,25.4241104,81.8052668,Rajroopur Road (60 feet Rd),Chakia,Prayagraj
school,ML CONVENT SCHOOL,25.4556312,81.8777388,krishna kunj road,Allahpur,Prayagraj
school,Nice Computer Education,25.2883613,82.9697871,SH74,Bhullanpur,Varanasi
school,mpvm,25.4497955,81.8600114,CY Chintamani Road,George Town,Prayagraj
school,j.c bose institue,25.4576206,81.8569272,NH30,George Town,Prayagraj
school,St. Mary's Convent Inter College,25.4575978,81.8455433,Thornhill Road,Katra,Prayagraj
school,कैटजी,25.3043355,82.9788384,Raja Sir Motichand Road,,Varanasi
school,Majidia Islamia Inter College,25.4295784,81.8263182,Atala Road,Roshan Bagh,Prayagraj
school,Atheletics ground,25.3768568,81.8526759,COD ROAD,,Prayagraj
school,kho kho ground,25.3777098,81.8532124,COD ROAD,,Prayagraj
school,assembly ground,25.3772445,81.852971,COD ROAD,,Prayagraj
school,KENDRIYA VIDYALAYA COD CHHEOKI PRAYAGRAJ,25.3773996,81.8527081,COD ROAD,,Prayagraj
school,Colony ground,25.3759407,81.8515279,COD ROAD,,Prayagraj
school,PLAYING GROUND,25.3794086,81.8446829,JAI MATA DI COLONY,,Prayagraj
school,LAKSHYA COACHING CLASSES,25.3779388,81.8441505,SHANKAR NAGAR COLONY,,Prayagraj
school,AKSH COACHING CLASSES,25.3787482,81.8446038,JAI MATA DI COLONY,,Prayagraj
school,Primary school,26.5418937,82.409823,NH135A,,Ambedkar Nagar
school,Abhay mahavidyalaya,25.3699506,82.9171311,NH31,,Varanasi
school,Sant Atulanand Convent School,25.3704954,82.9183193,NH31,,Varanasi
school,the pathshala school,25.3624052,82.9325662,NH31,,Varanasi
school,basant balika govt school,25.3625245,82.9373073,NH31,,Varanasi
school,sant atulanand  convent school,25.3535677,82.9659655,Kautilya Kon Road,,Varanasi
school,jaipuria school,25.3625149,82.9369225,NH31,,Varanasi
school,upsc exam ankit NvS SNY ji,25.3622599,82.9373831,NH31,,Varanasi
school,abacus n abacus,25.3541058,82.9667212,Kautilya Kon Road,,Varanasi
school,the sunnrise school,25.3547101,82.9669677,NH31,,Varanasi
school,Scholar's Home Bal Siksha Sansthan,26.2732341,82.4698801,MDR113E,,Sultanpur
school,ASSEMBLY GROUND,25.4625916,81.8405524,Stanley Road,Katra,Prayagraj
school,HOLY TRINITY SCHOOL ALLAHABAD,25.4620292,81.8614059,Church Lane,Katra,Prayagraj
school,GD PUBLIC SCHOOL,25.4652799,81.8617506,NH30,George Town,Prayagraj
school,Sunbeam Bhagwanpur Grounds,25.2731346,83.001598,Diagonal Road,,Varanasi
school,C.A.V. Inter College,25.4485955,81.8449649,Pannalal Road,George Town,Prayagraj
school,Cricket Ground,25.4477174,81.8444478,Kamla Nehru Road,Civil Lines,Prayagraj
school,Narendra Inter college,26.3088283,82.7333133,MDR82E,,Ambedkar Nagar
school,DD Central,26.3087999,82.7339906,MDR82E,,Ambedkar Nagar
school,RUNNING GROUND,25.2585849,82.9896612,Radial Road 11,,Varanasi
school,Saraybhogi primary school,25.7712723,82.3290009,NH319D,,Jaunpur
school,Bethel Academy School,25.3613416,81.8387521,NH30,,Prayagraj
university,NIELIT Gorakhpur,26.7285652,83.4342065,Hostel Road,,Gorakhpur
university,Mechanical Workshop,26.7297498,83.4350798,University Internal Road,,Gorakhpur
university,United University,25.3957121,81.7583556,Road To Shahapur,Jhalwa,Prayagraj
university,Indian Institute of Technology (BHU),25.2621544,82.9925896,Semi Circle Road 2,,Varanasi
university,ALLAHABAD UNIVERSITY,25.4649427,81.8603052,,George Town,Prayagraj
university,DIAMOND JUBILEE HOSTEL GROUND,25.4624693,81.8592971,,George Town,Prayagraj
university,UNIVERSITY PARK,25.4653472,81.8606365,,George Town,Prayagraj
university,GYMKHANA GROUND,25.2586098,82.9902383,Radial Road 11,,Varanasi
university,NAKLI GROUND,25.2583127,82.990765,Semi Circle RD,,Varanasi
vehicle_inspection,Mahindra Raj India Auto - SUV and Commercial ....,25.3746904,82.9163029,NH31,,Varanasi
vehicle_inspection,RAJ INDIA PVT LTD mahindra workshop,25.3747417,82.916235,NH31,,Varanasi
ferry_terminal,Dasaswamedh Ghat,25.3063243,83.0103739,,,Varanasi
ferry_terminal,Ramnagar,25.2718076,83.0229253,Sameneghat-Ramnagar LINK,,Varanasi
fuel,Indian Oil,25.9283187,83.5711021,NH24;NH128B,,Mau
fuel,Indian Oil,25.9348177,83.5669181,Railway Station Road,,Mau
fuel,Indian Oil,25.9633105,83.5803692,mau-ballia road,,Mau
fuel,Indian Oil,25.5417224,83.2665963,NH31,,Ghazipur
fuel,Indian Oil,25.5449342,83.3304886,NH31,,Ghazipur
fuel,Indian Oil,25.5459651,83.3768475,NH31,,Ghazipur
fuel,HP,25.567077,83.4707863,NH31,,Ghazipur
fuel,Bharat Petrolium,25.5786498,83.5035431,NH31,,Ghazipur
fuel,Indian Oil,25.5783509,83.5573436,NH31,,Ghazipur
fuel,Bharat Petrolium,25.6283152,83.5661881,NH24,,Ghazipur
fuel,IBP,25.6796435,83.5485398,NH24,,Ghazipur
fuel,Indian Oil,25.7293344,83.5458034,NH24,,Ghazipur
fuel,IBP,25.7706176,83.5536783,NH24,,Ghazipur
fuel,Indian Oil,25.8325808,83.5579199,NH24,,Ghazipur
fuel,NRL,25.8909632,83.560484,NH24,,Mau
fuel,Indian Oil,25.8987875,83.5611688,NH24,,Mau
fuel,Indian Oil,25.4637202,83.1183409,NH31,,Varanasi
fuel,Indian Oil,25.5408428,83.1870583,NH31,,Ghazipur
fuel,Indian Oil,25.5403315,83.211525,NH31,,Ghazipur
fuel,IBP,25.540783,83.2205785,NH31,,Ghazipur
fuel,Bharat Petrolium,25.4478976,83.0312858,Satomahua Mangari Road,,Varanasi
fuel,Bharat Petrolium,25.9438383,83.5689208,Sahadatpura Rd.,,Mau
fuel,Shakuntala Filling Station,25.1737096,83.0991292,SH-98,,Mirzapur
fuel,Indian Oil Petrol Pump,25.3050048,82.9811121,Rathyatra Mahmoorganj Road,,Varanasi
fuel,Indian Oil,25.2977678,83.0020662,Durgakund Road,,Varanasi
fuel,Indian Oil,25.3117109,82.9885717,Vidyapeeth Lanka Road,Cantonment,Varanasi
fuel,Binarat Petroleum,25.3111057,82.9888223,Vidyapeeth Lanka Road,Cantonment,Varanasi
fuel,HP,25.3183391,82.9881765,Vidyapeeth Lanka Road,Cantonment,Varanasi
fuel,indian oil,25.4388788,81.8582634,Defunct railway line,New Bairahana,Prayagraj
fuel,Petrol Station,26.3778686,82.8631138,NH28,,Ambedkar Nagar
fuel,Indian Oil (Bihar Oil Agency),25.1334272,83.665899,NH19,,Kaimur
fuel,तेलियरगंज पेट्रोल पंप,25.4982624,81.8628931,NH30,Teliyarganj,Prayagraj
fuel,Essar,25.4183563,82.0160124,NH19,,Prayagraj
fuel,Indian Oil,26.3658473,82.5107809,MDR113E,,Ambedkar Nagar
fuel,Petrol Pump,25.2848795,83.0023419,Ravindrapuri Road,,Varanasi
fuel,Petrol Pump,25.2774869,83.005451,Ramnagar Road,,Varanasi
fuel,Indian Oil Petrol Pump,25.2941304,83.0000956,Durgakund Road,,Varanasi
fuel,Indian Oil,25.3454544,82.9941786,Premchand Road,Cantonment,Varanasi
fuel,Indian Oil Petrol Pump,25.1509743,82.3388427,Petrol Pump,,Mirzapur
fuel,HP petrol pump,26.6009244,81.9195413,NH330A,,Ayodhya
fuel,Essar Petrol Pump,25.3010041,82.9542855,Raja Moti Chand Road,,Varanasi
fuel,Bharat Petroleum,25.2833874,82.9754984,University Road,Bhullanpur,Varanasi
fuel,Vijay,25.7867525,82.2316079,,,Jaunpur
fuel,Indian Oil Petrol Pump,25.2484958,82.9623644,Varanasi Bypass Expressway,,Varanasi
fuel,Indian Oil Petrol Pump,25.267544,82.9946423,Semi Circle Road 2,,Varanasi
fuel,GAYATRI,25.3776359,81.8447178,SHANKAR NAGAR COLONY,,Prayagraj
fuel,सरस्वती पेट्रोल पंप एवं सी.एन.जी. फीलिंग,25.2672101,82.9660906,Chunar Road,Bhullanpur,Varanasi
fuel,Indian Oil,25.3683821,82.9279175,NH31,,Varanasi
fuel,GHANSHYAM PETROL PUMP,25.3510857,82.2285834,NH19,,Prayagraj
fuel,INDIAN OIL,25.3405993,82.2541342,NH19,,Prayagraj
fuel,Bharat Petroleum,25.2802163,82.9874745,BHU DLW Road,,Varanasi
fuel,Indian Oil,25.2835546,82.9721273,University Road,Bhullanpur,Varanasi
fuel,HP Petrol Pump Sarju Prasad Sarju Prasad Mahabir Prasad,26.2651535,82.0725631,Faizabad-Sultanpur road,,Sultanpur
fuel,Bharat Petroleum,25.442863,81.8670851,Jawaharlal Nehru Road,New Bairahana,Prayagraj
taxi,Rajesultanpur Taxi Stand,26.3042343,83.0795069,Azamgarh Maharajganj Rajesultanpur Road,,Ambedkar Nagar
taxi,Shared tuk tuk to Varanasi Jct (Cantt) Station,25.3093104,83.003472,Luxa Road,,Varanasi
taxi,AUTO STAND,25.2653598,82.9898452,Semi Circle RD,,Varanasi
taxi,SATISH DHAWAN CYCLE SATND,25.2637613,82.9841309,cycle stand,,Varanasi
atm,State Bank of India,25.3000645,82.9729878,Manduadih Flyover,,Varanasi
atm,SBI ATM,25.465973,81.86197,NH30,George Town,Prayagraj
atm,PNB ATM,25.466971,81.862945,NH30,George Town,Prayagraj
atm,SBI ATM,25.461064,81.826185,Maharishi Dayanand Marg,Civil Lines,Prayagraj
atm,SBI ATM,26.3070093,83.0766621,Baskhari Jahangirganj Rajesultanpur Road,,Ambedkar Nagar
atm,State Bank ATM,25.309149,83.0067144,Luxa Road,,Varanasi
atm,State Bank of India,25.3172234,82.9911145,Patel Road,Cantonment,Varanasi
atm,ICICI Bank,25.3386245,82.981759,The Mall Road,Cantonment,Varanasi
atm,HDFC Bank,25.338642,82.9817789,The Mall Road,Cantonment,Varanasi
atm,State Bank of India,25.3453057,82.9941765,Premchand Road,Cantonment,Varanasi
atm,State Bank of India,25.3456489,82.9941807,Premchand Road,Cantonment,Varanasi
atm,State Bank of India,25.351358,82.9935332,NH28,,Varanasi
atm,Bank of India ATM,25.3093898,83.0030173,Luxa Road,,Varanasi
atm,Punjab National Bank,25.3900038,81.8634397,Mirzapur Road,Kharkauni,Prayagraj
atm,HDFC Bank,25.4016688,81.8693103,Mirzapur Road,Kharkauni,Prayagraj
atm,State Bank of India,25.4017337,81.8693735,Mirzapur Road,Kharkauni,Prayagraj
atm,HDFC Bank,25.4020271,81.8697262,Arail Road,Arail,Prayagraj
atm,State Bank of India,25.401167,81.8684867,Mirzapur Road,Kharkauni,Prayagraj
atm,INDIAN BANK ZONAL OFFICE,25.4570374,81.8352544,Purushottamdas Tandon Marg,Civil Lines,Prayagraj
atm,SBI ATM,25.3769574,81.8488699,COD ROAD,,Prayagraj
atm,Punjab National ATM,25.4646294,81.870656,Bhola wali gali,Allahpur,Prayagraj
atm,Union Bank Of India Atm,25.2606833,82.9816495,Semi Circle Road 6,,Varanasi
atm,Punjab national bank,25.2608874,82.9816249,Semi Circle Road 6,,Varanasi
bank,HDFC Bank,25.9269104,83.5661857,NH128B,,Mau
bank,State Bank of India,25.9300451,83.5666861,NH128B,,Mau
bank,Punjab National Bank,25.4622069,81.8563931,Katra Road,Katra,Prayagraj
bank,Axis Bank,25.4510273,81.8304552,MG Marg,Civil Lines,Prayagraj
bank,Allahabad Bank,25.4620946,81.8653888,Band Road,Allahpur,Prayagraj
bank,State Bank of India,25.4619518,81.8459346,Gulati Marg,Katra,Prayagraj
bank,State Bank of India,25.4657182,81.8569019,University Road,Katra,Prayagraj
bank,UBI,26.2932522,83.0925814,Azamgarh Maharajganj Rajesultanpur Road,,Ambedkar Nagar
bank,Bank of Baroda,25.4389773,81.8582096,Defunct railway line,New Bairahana,Prayagraj
bank,State Bank of India,25.3172343,82.991197,Patel Road,Cantonment,Varanasi
bank,VIJAYA BANK,25.4920966,81.8648709,Chatham Lines,Old Cantonment,Prayagraj
bank,State Bank of India,25.4303516,81.8289879,unnamed road,Roshan Bagh,Prayagraj
bank,Punjab National Bank,25.4302684,81.8282172,unnamed road,Roshan Bagh,Prayagraj
bank,भारतीय स्टेट बैंक,25.4947383,81.8621768,NH30,Teliyarganj,Prayagraj
bank,Union Bank,25.3380613,82.9804377,The Mall Road,Cantonment,Varanasi
bank,Bank of Baroda,25.4096906,81.9108845,NH19,,Prayagraj
bank,State Bank of India,25.2593349,82.9934338,IIT(BHU) Road,,Varanasi
bank,Punjab National Bank,25.2767178,82.9877373,Radial Road 5,,Varanasi
bank,Bank of Baroda,25.2778038,82.9989742,Semi Circle Road 5,,Varanasi
bank,Axis Bank,25.281238,83.0032025,Pandit Manmohan Malviya Road,,Varanasi
bank,Kashi Gomti samyut gramin bank,25.3452467,82.9939213,Premchand Road,Cantonment,Varanasi
bank,Allahabad Bank,25.2497947,82.9933808,Varanasi Bypass Expressway,,Varanasi
bank,Punjab National Bank,26.4270799,82.5332629,SH5; SH30,,Ambedkar Nagar
bank,ICICI Bank,25.4575837,81.835317,Sardar Patel Marg,Civil Lines,Prayagraj
bank,Bank of Baroda,25.4684687,81.8563101,Bank Road,Katra,Prayagraj
bank,ICICI Bank,25.311136,82.9862744,Vidyapeeth Lanka Road,Cantonment,Varanasi
bank,Bank of India,25.3028729,82.9746002,Manduadih Flyover,,Varanasi
bank,State Bank of India,25.3043984,82.977972,Raja Sir Motichand Road,,Varanasi
bank,HDFC Bank,25.3071357,82.9908639,Rathyatra Mahmoorganj Road,,Varanasi
bank,Union Bank of India,25.3071065,82.9911615,Rathyatra Mahmoorganj Road,,Varanasi
bank,First IDFC Bank,25.2867485,83.0020165,Ravindrapuri Road,,Varanasi
bank,Bank of Baroda,25.3097717,82.9896733,Vidyapeeth Lanka Road,Cantonment,Varanasi
bank,Bank of Baroda,25.3102527,82.9894139,Vidyapeeth Lanka Road,Cantonment,Varanasi
bank,HDFC Bank,25.3095044,83.0033371,Luxa Road,,Varanasi
bank,Bank of India,25.3105427,82.9890026,Vidyapeeth Lanka Road,Cantonment,Varanasi
bank,HDFC Bank,25.3112313,82.9891875,Vidyapeeth Lanka Road,Cantonment,Varanasi
bank,State Bank of India,25.284562,82.9597102,BLW Road,Bhullanpur,Varanasi
bank,State Bank of India,25.3082715,82.9912489,Vidyapeeth Lanka Road,Cantonment,Varanasi
bank,Vijaya Bank,25.3073061,82.9941706,Guru Nanak Road,,Varanasi
bank,SBI,25.4508371,81.8748722,krishna kunj road,Allahpur,Prayagraj
bank,Allahabad Bank,25.4480711,81.8590286,Malviya Road,George Town,Prayagraj
bank,bank of jhaplu,25.456723,81.8658677,Hashimpur Road,George Town,Prayagraj
bank,munuwar rana,25.4575064,81.8642422,Hashimpur Road,George Town,Prayagraj
bank,Bank of Baroda,25.2946849,83.0007772,Durgakund Road,,Varanasi
bank,State Bank of India lalganj branch,25.0190209,82.362836,Vijaypur Road,,Mirzapur
bank,SBI ATM,25.2874604,82.9444834,walking,,Varanasi
bank,BOB ATM,25.2874546,82.9443257,walking,,Varanasi
bank,Punjab National Bank,25.390893,81.8635954,Mirzapur Road,Kharkauni,Prayagraj
bank,Bank of India,25.3907074,81.8636433,Mirzapur Road,Kharkauni,Prayagraj
bank,HDFC Bank,25.3921424,81.863717,Mirzapur Road,Kharkauni,Prayagraj
bank,State Bank of India,25.3880304,81.8659736,Mirzapur Road,ADA Colony,Prayagraj
bank,IDFC First Bank,25.4511585,81.8296072,MG Marg,Civil Lines,Prayagraj
bank,Central Bank of India,25.4497735,81.8362295,Subhash Chauraha,Civil Lines,Prayagraj
bank,Bank of Baroda,25.4507995,81.8331265,MG Marg,Civil Lines,Prayagraj
bank,IDFC First Bank,25.4013801,81.8691015,Mirzapur Road,Kharkauni,Prayagraj
bank,Union Bank of India,25.4378512,81.8405429,Shiv Charan Lal Road,Chowk,Prayagraj
bank,Bank of Baroda,25.4380087,81.8407068,Shiv Charan Lal Road,Chowk,Prayagraj
bank,AU Small Finance Bank,25.4557056,81.8361265,Tashkent Marg,Civil Lines,Prayagraj
bank,State Bank of India,25.3768992,81.8489718,COD ROAD,,Prayagraj
bank,Allahabad Bank,25.4720869,81.8682392,Chatham Lines,Mumfordganj,Prayagraj
bank,ICICI Bank,25.3924517,81.8638002,Mirzapur Road,Kharkauni,Prayagraj
bank,स्टेट बैंक ऑफ इंडिया,25.2675683,82.9662411,Chunar Road,Bhullanpur,Varanasi
bank,Bank of Baroda,25.392236,81.8637364,Mirzapur Road,Kharkauni,Prayagraj
bank,Axis bank branch,25.3734307,82.9188949,NH31,,Varanasi
bank,INDIAN OVERSEAS BANK,25.3711535,82.9225816,NH31,,Varanasi
bank,State Bank of India,24.9983342,82.075717,SH102,,Prayagraj
bank,ICICI bank,25.3673535,82.928706,NH31,,Varanasi
bank,union school of india,25.3536914,82.965537,Jaunpur Road,,Varanasi
bank,Union Bank of India,25.47131,83.2497737,SH69,,Chandauli
bank,Punjab National Bank,26.2720615,82.4689125,MDR113E,,Sultanpur
bank,United Bank Of India,25.4657711,81.8719984,Bhola wali gali,Allahpur,Prayagraj
bank,Allahabad Bank,25.4635254,81.8658128,Band Road,Allahpur,Prayagraj
bank,State Bank of India,25.4656341,81.8568128,University Road,Katra,Prayagraj
bank,Shubham Banking Seva Kendra,26.2730429,82.4699582,MDR113E,,Sultanpur
bank,SBI,26.2703444,82.4690031,MDR66E,,Sultanpur
bank,Punjab National Bank of Dostpur,26.2702763,82.4692681,MDR66E,,Sultanpur
bank,STATE BANK OF INDIA,25.4422,81.8837572,DARAGANJ GHAT,,Prayagraj
bank,State Bank of India,26.3104868,82.7345646,MDR82E,,Ambedkar Nagar
bank,PNB,26.3093032,82.7411386,MDR82E,,Ambedkar Nagar
bank,Maharashtra Bank,26.3098058,82.7345057,MDR82E,,Ambedkar Nagar
bank,Bank of Baroda,26.2639163,82.0742575,Pant Stadium Road,,Sultanpur
bank,City Union Bank,25.4517323,81.832585,Strachey Road,Civil Lines,Prayagraj
bank,HDFC Bank,25.447911,81.8343737,Nawab Yusuf Marg,Civil Lines,Prayagraj
bank,Canara Bank,25.4514279,81.8301846,Clive Road,Civil Lines,Prayagraj
clinic,The Apolo Clinic,25.3041865,82.9784124,Rathyatra Mahmoorganj Road,,Varanasi
clinic,Bajaj Hospital Diagnosis Services,25.4551349,81.8350008,Sardar Patel Marg,Civil Lines,Prayagraj
clinic,gupta medical store,25.4394997,81.8597543,Bank Road,New Bairahana,Prayagraj
clinic,Ehsaas De-Addiction Cum Rehabilitation Centre,26.7398014,83.3749512,SH1,,Gorakhpur
clinic,Agir pour Benares,25.2965543,83.0058046,Godowalia Lanka Road,,Varanasi
clinic,"Pooja Nursing Home, Kaimur (Bhabua)",25.2887,83.5278967,MDR,,Kaimur
clinic,Dr.Awinash Clinic,25.1716198,83.6196336,NH19,,Kaimur
clinic,Dr. Deepak Agarwal Clinic,25.4549816,81.8574438,Lowther Road,George Town,Prayagraj
clinic,"Dwivedi Medical and Research Center Pvt Ltd,",25.4661464,81.8443251,Muir Road,Katra,Prayagraj
clinic,Priti Nursing And Maternity Home,25.4502705,81.8590102,CY Chintamani Road,George Town,Prayagraj
clinic,Deep Ganga Clinic,25.4613291,81.8438295,Gulati Marg,Katra,Prayagraj
clinic,Bk Nursing Home,25.3901604,82.567336,NH731B,,Sant Ravidas Nagar
clinic,Kunwar Das Sewashram Nursing Home,25.735593,82.6994187,NH31,,Jaunpur
clinic,Chinmay Surgical Center,26.6515524,81.9737461,NH330A,,Ayodhya
clinic,Ashutosh Maternity And Nursing Home,25.2859572,83.1136657,MDR65E,,Chandauli
clinic,Rajhans Nursing Home,25.386875,82.5805774,NH731B,,Sant Ravidas Nagar
clinic,Narayan Nursing Home,25.7468347,82.6938939,NH731,,Jaunpur
clinic,Adarsh Clinic and Surgical Center,25.4125248,82.0312985,NH19,,Prayagraj
clinic,Vandna Nursing Home,25.9217757,83.5664709,NH24,,Mau
clinic,Haribandhu Fracture Clinic Pvt Ltd.,25.3502193,83.0226852,Madan Mohan Malviya Road,Pilokothi,Varanasi
clinic,Kalra Nursing Home,25.4266104,81.8268836,Atala Road,Roshan Bagh,Prayagraj
clinic,Life Line Medical and Surgical Health Care Center,25.5808248,83.5801274,NH31,,Ghazipur
clinic,City Nursing and Maternity Home,25.4429561,81.828429,Leader Road,Chowk,Prayagraj
clinic,Charu Nursing Home,25.91725,81.9930951,Katra Road,,
clinic,Dev Nursing Home,25.4633446,81.8484825,Muir Road,Katra,Prayagraj
clinic,Prema Nursing Home and Shri Hari Surgical Research Centre,26.0286596,83.3883896,NH128B,,Mau
clinic,Sardar Nursing Home,26.255524,82.063031,Rajguru Marg,,Sultanpur
clinic,J.P. Hospital and Surgical Centre,25.2890796,82.9708877,SH74,Bhullanpur,Chandauli
clinic,"Kamala Nursing Home, Varanasi",25.2596764,83.0338507,National Highway 7,,Varanasi
clinic,"Ashirvad Nursing Home, Chandauli",25.2760437,83.1357282,Sakaldiha - Mughalsarai Highway,,Chandauli
clinic,Baba Clinic and Nursing Home,25.2620454,83.2630181,NH19,,Chandauli
clinic,Prince Clinic and Nursing Home,25.3274904,82.9914415,Patel Road,Cantonment,Varanasi
clinic,Santusti Nursing and Surgical Centre,25.3987077,82.5677691,NH731B,,Sant Ravidas Nagar
clinic,Maa Sharda Clinic and Nursing Home,26.742639,83.3716097,SH1,,Gorakhpur
clinic,Dr. S K Sharma Eye Clinic,26.7412138,83.3686995,Gita Press Road,,Gorakhpur
clinic,Dr. S.Nath Memorial Eye Clinic Phaco and Laser Centre,25.3230301,83.0010518,St. Kabir Road,,Varanasi
clinic,Kalptaru Chikitsalya,25.7454716,82.6816966,Shahi Bridge,,Jaunpur
clinic,Shiv Surgical Hospital And Medical College,25.3588766,83.0135543,Gautam Buddha Rajpath Road,Pilokothi,Varanasi
clinic,Nirmal Nursing Home,25.4757592,82.5690023,NH135A,,Jaunpur
clinic,Agarwal Nursing Home,25.9217322,83.5680239,Imiliya Road,,Mau
clinic,"Rajendra Nursing Home and Dental Clinic, Varanasi",25.354083,82.9825312,Panch Koshi Road,,Varanasi
clinic,Sangeeta Nursing Home,25.7279201,82.68985,NH31,,Jaunpur
clinic,Vishal Medicare Centre,25.4615794,82.4083479,NH731B,,Sant Ravidas Nagar
clinic,Arogyaneer Diagnostic Clinic,25.5931466,82.9993722,NH731,,Jaunpur
clinic,The Fractures Clinic and Trauma Hospital,25.3032363,82.9764466,Rathyatra Mahmoorganj Road,,Varanasi
clinic,Adarsh Nursing Home,25.2833258,82.9730503,University Road,Bhullanpur,Varanasi
clinic,Sneha Nursing Home,26.2668388,83.5054453,NH227A,,Mau
clinic,"Rahul Nursing Home, Mau",25.9226106,83.5668521,NH24;NH128B,,Mau
clinic,Chitwan Surgical Center,26.5847764,82.1976521,,,Ayodhya
clinic,"Samarpan Hospital, Varanasi",25.3507187,82.976228,Kautilya Kon Road,,Varanasi
clinic,"Sri Sai Nursing Home, Varanasi",25.3344185,82.7890876,NH731B,,Varanasi
clinic,Shanti Nursing Home,26.0538456,83.1828117,Azamgarh-Doharighat Marg,,Azamgarh
clinic,Allahabad Nursing Home,25.4654018,81.8332046,Clive Road,Civil Lines,Prayagraj
clinic,Dr. N D Tahiliani Memorial Clinic And Minimal Inva,25.4680377,81.8243661,Nyaya Marg,Ashok Nagar,Prayagraj
clinic,"Chandra Nursing Home, Varanasi",25.3275898,83.0027376,St. Kabir Road,,Varanasi
clinic,Arogyam Piyush Clinic,25.3661363,83.006195,Daulatpur Road,,Varanasi
clinic,Nandan Ent Clinic,26.7427516,83.3732077,SH1,,Gorakhpur
clinic,Dularee Nursing Home,26.7416989,83.3760304,SH1,,Gorakhpur
clinic,Shivam Maternity and Nursing Home,25.3530274,82.9819612,Panch Koshi Road,,Varanasi
clinic,Tandon Multispeciality Hospital and Ishita Modern Eye Care Centre,25.3191944,83.0067299,St. Kabir Road,,Varanasi
clinic,Kamla Polyclinic,25.4497628,81.8604552,Malviya Road,George Town,Prayagraj
clinic,Shri Hari Netralaya,25.4546773,81.8513656,Pannalal Road,George Town,Prayagraj
clinic,Eye Clinic,25.4384364,81.8394688,Zero Road,Chowk,Prayagraj
clinic,Jijivisha Medicare and Trauma Centre,25.4470887,81.8615844,Malviya Road,George Town,Prayagraj
clinic,Raj Nursing Home,25.2882993,82.4267406,NH19,,Sant Ravidas Nagar
clinic,Kumar Ent and Head and Neck Clinic,25.2780889,83.0032586,Ramnagar Road,,Varanasi
clinic,Mangalam Clinic and Trauma Centre,25.3110083,83.0024332,Luxa Road,,Varanasi
clinic,Annu Nursing Home and Maternity Centre,26.4118646,82.5460989,NH135A,,Ambedkar Nagar
clinic,Dispensary No.2,25.4642043,81.8264642,Drummond Road,Ashok Nagar,Prayagraj
clinic,Sharda Polyclinic,26.0467164,83.1970395,NH128B,,Azamgarh
clinic,Sachan Nursing Home,25.4509899,81.8619747,Jawaharlal Nehru Road,George Town,Prayagraj
clinic,Sah Speciality Clinic,25.2905553,83.0004665,Ravindrapuri Road,,Varanasi
clinic,"Akanksha Nursing Home, Varanasi",25.3118776,82.9877642,Vidyapeeth Lanka Road,Cantonment,Varanasi
clinic,Shail Nursing Home,25.353734,82.9649064,Jaunpur Road,,Varanasi
clinic,Umang Nursing Home,25.3518488,82.9822486,Mahavir Road,,Varanasi
clinic,"Yash Nursing Home and Maternity Home, Bhadohi",25.6454714,82.9182591,NH731,,Jaunpur
clinic,Uphar Nursing Home Pvt. Ltd.,25.3046542,82.9803948,Rathyatra Mahmoorganj Road,,Varanasi
clinic,Dua Nursing andMaternity Home,25.4509687,81.7807775,Kendranchal Road,,Sultanpur
clinic,Khetan Netra Chikitsalya,26.0780998,83.1857863,NH128C,,Azamgarh
clinic,Mayocare Heart Clinic,25.4500332,81.7662426,Grand Trunk Road,Bamrauli,Prayagraj
clinic,Ashish Nursing Home,25.9294793,83.5667941,NH128B,,Mau
clinic,Sardar Patel Clinic,26.7454607,83.3793117,SH1,,Gorakhpur
clinic,"Sanjeevani Nursing Home, Azamgarh",26.0895511,83.1878342,NH128C,,Azamgarh
clinic,Raj Ganga Nursing Home,25.9191419,81.9844577,Kamla Gang Bazar Marg,,
clinic,"Sanjeevani Nursing Home, Varanasi",25.3536867,82.9793367,Panch Koshi Road,,Varanasi
clinic,Himanshu Hospital and Clinic Pvt Ltd,25.3493104,82.9916064,Panch Koshi Road,,Varanasi
clinic,Pankaj Chikatsalay,26.0043596,83.112957,NH28,,Azamgarh
clinic,Murti Fracture Clinic,25.2880337,83.1094198,MDR65E,,Chandauli
clinic,J.J Clinic and Nursing Home,25.2767719,83.1335617,Sakaldiha - Mughalsarai Highway,,Chandauli
clinic,Dayal Nursing Home and Maternity Home,25.4495004,81.762112,Grand Trunk Road,Bamrauli,Prayagraj
clinic,Raj Nursing Home,25.455994,81.8527398,Pannalal Road,George Town,Prayagraj
clinic,Srijan Poly Clinic,25.3956777,81.8627411,Naini Bazar Road,,Prayagraj
clinic,Vishal Surgical Center,25.3163026,82.9088225,NH731B,,Varanasi
clinic,Om Sai Nath Child Care Centre,26.2844295,83.5124573,NH227A,,Gorakhpur
clinic,Jeevan Rekha Nursing Home,24.9915414,82.0689514,SH102,,Prayagraj
clinic,Anmol Poly Clinic,25.3600376,83.0653328,Varanasi Ring Road,,Varanasi
clinic,Chiranjiv Nursing Home,25.4413515,81.8650706,NH30,New Bairahana,Prayagraj
clinic,Prakash Nursing Home,26.0532877,83.1812721,Azamgarh-Doharighat Marg,,Azamgarh
clinic,Anurag Maternity and Laparoscopic Center,25.3024243,82.9690787,Bhulanpur Marg,,Varanasi
clinic,M.M. Nursing Home,26.7429588,83.3712517,SH1,,Gorakhpur
clinic,Anand Poly clinic and Trauma Centre,25.2845053,82.4361156,MDR 156E,,Sant Ravidas Nagar
clinic,Shailja Nursing Home,25.2573714,83.2764725,NH19,,Chandauli
clinic,Ram Nath Memorial Nursing Home,25.3697983,82.9726593,Nawalpur Road,,Varanasi
clinic,Baby Care Clinic,25.3023578,82.9753549,Manduadih Flyover,,Varanasi
clinic,Wazirunnisa Mother Care Nursing Home,25.3867334,82.5821934,NH731B,,Sant Ravidas Nagar
clinic,Dispensary No.1,25.4782611,81.8606785,Chatham Lines,Old Cantonment,Prayagraj
clinic,Bps Heart Clinic,25.2824005,82.9906966,BHU DLW Road,,Varanasi
clinic,Rudrapriya Clinic,25.2683883,83.0138326,,,Varanasi
clinic,Dr. Preeti Maternity Clinic,25.425308,81.912422,NH19,,Prayagraj
clinic,Sachan Poly Clinic,25.4839218,81.8769177,Chatham Lines,Old Cantonment,Prayagraj
clinic,Dr. OP. Singh Clinic,25.4088946,81.9177673,NH19,,Prayagraj
clinic,Alok Mishra Gastro Clinic,25.4541694,81.8603227,Malviya Road,George Town,Prayagraj
clinic,Kamla Memorial Clinic,25.4391012,81.8381289,Zero Road,Chowk,Prayagraj
clinic,ECHS Polyclinic,26.0482847,83.1840446,NH128B,,Azamgarh
clinic,Raj Clinic,26.0844709,83.0361054,Purvanchal Expressway,,Azamgarh
clinic,Mishra Clinic,24.9265262,82.6758657,Mirzapur - Ghorawal Road,,Mirzapur
clinic,Shahi Neuro Psychiatry Clinic,26.7424394,83.3682212,Gita Press Road,,Gorakhpur
clinic,Dr.Devmuni Singh Clinic,24.873904,83.0395976,SH5A,,Mirzapur
clinic,Apollo Clinic,26.738647,83.367827,Gita Press Road,,Gorakhpur
clinic,Star Health Care Clinic,26.3445711,83.4138496,NH227A,,Gorakhpur
clinic,Arthritis Homoeopathic Clinic,25.4559036,81.873128,Bakshi Bandh,Allahpur,Prayagraj
clinic,Patwardhan Skin Clinic,25.2805137,82.9903301,BHU DLW Road,,Varanasi
clinic,DR CHAUHAN EYE CLINIC,25.4004424,81.8678011,Mirzapur Road,Kharkauni,Prayagraj
clinic,Medi-Kiran,25.4663303,81.830858,Muir Road,Ashok Nagar,Prayagraj
clinic,KESARWANI CLINIC,25.3797806,81.8456445,MAA DURGA COLONY,,Prayagraj
clinic,Ajay Poly Clinic,25.2232689,82.5111671,MDR 156E,,Mirzapur
clinic,Dr. Peeyush Chansouria's Bone Clinic,25.2810451,82.990486,BHU DLW Road,,Varanasi
dentist,Prayag Dental Clinic,25.455127,81.841359,Tashkent Marg,Civil Lines,Prayagraj
dentist,Avon Dental Clinic and Hospital,25.3269832,82.964445,Cemetery Road,Cantonment,Varanasi
dentist,Rastogi Dental Hospital,25.4581097,81.8382351,Thornhill Road,Civil Lines,Prayagraj
dentist,Naini Dental Hospital,25.4012539,81.868973,Mirzapur Road,Kharkauni,Prayagraj
dentist,Dental Hospital,25.4549389,81.8710772,Bakshi Bandh,Allahpur,Prayagraj
dentist,Public Dental Hospital,26.0412036,83.1891825,SH67,,Azamgarh
dentist,Prakhar Dental Hospital,26.0774853,83.1853284,NH128C,,Azamgarh
dentist,Dentist hospital,25.3428889,82.9964458,Premchand Road,Cantonment,Varanasi
dentist,Dental hospital,25.3380641,82.9965272,Premchand Road,Cantonment,Varanasi
dentist,Shubham Dental Clinic,25.406536,81.8678942,Mirzapur Road,Kharkauni,Prayagraj
dentist,Maruti Dental Clinic,25.452133,81.8350271,Lal Bahadur Shastri Marg,Civil Lines,Prayagraj
doctors,dubay clinic,25.4395135,81.8598341,Bank Road,New Bairahana,Prayagraj
doctors,Dr. Vinod Kumar Maurya,25.3526539,82.9769841,Panch Koshi Road,,Varanasi
doctors,Bangali Doctor,26.6218178,83.559367,NH727A,,Gorakhpur
doctors,Center For Sight,25.4558325,81.8345712,Tashkent Marg,Civil Lines,Prayagraj
hospital,Mata Anandmayee Hosiptal,25.2929029,83.0055074,Pandit Manmohan Malviya Road,,Varanasi
hospital,Punjabi Hospital,25.3460988,83.0372616,Madan Mohan Malviya Road,Pilokothi,Varanasi
hospital,Sri Narayan Ashram Hospital,25.4969605,81.8684147,NH30,Teliyarganj,Prayagraj
hospital,Government Hospital Nandganj,25.5434374,83.4006007,NH31,,Ghazipur
hospital,"Samvedna Hospital, Varanasi",25.2965812,83.0013293,Durgakund Road,,Varanasi
hospital,Priti Hospital,25.4573983,81.8541354,Pannalal Road,George Town,Prayagraj
hospital,"Jeevan Jyoti Hospital, Allahabad",25.436294,81.8465893,Grand Trunk Road,Chowk,Prayagraj
hospital,Heritage Hospitals Ltd,25.2788877,83.0028725,Pandit Manmohan Malviya Road,,Varanasi
hospital,"S.R.N. Hospital, M.L. N. Medical College",25.4456103,81.8448926,Pannalal Road,George Town,Prayagraj
hospital,"Sanjeevani Hospital, Kaimur (Bhabua)",25.0529472,83.6049874,NH219,,Kaimur
hospital,"Prakash Hospital, Kaimur (Bhabua)",25.2120479,83.5200848,NH19,,Kaimur
hospital,"Ranjan Hospital, Kaimur (Bhabua)",25.0402736,83.6076361,NH219,,Kaimur
hospital,Shakuntla Multi Speciality Hospital,25.4248667,81.9247846,NH19,,Prayagraj
hospital,Bhola Hospital,25.4534639,81.8558676,Lowther Road,George Town,Prayagraj
hospital,Ambedkar Scan Hospital (Pvt.) Ltd.,25.1339452,82.5781942,Station Road,,Mirzapur
hospital,Seema Hospital,26.3259352,82.9505861,Atraulia Atraith Road,,Azamgarh
hospital,Shekhar Hospital and Research Center,25.357457,82.9647079,NH31,,Varanasi
hospital,Nishant Maternity And Children Hospital,25.3504181,82.9967603,Gautam Buddha Rajpath Road Flyover,,Varanasi
hospital,Sadhana Hospital,26.4398191,82.5485551,SH5; SH30,,Ambedkar Nagar
hospital,Nisa General and Welfare Hospital,26.0888381,83.2928762,SH30A,,Azamgarh
hospital,Karunashray Hospital,26.2629362,82.0750688,Pant Stadium Road,,Sultanpur
hospital,New Yashlok Hospital,26.0794356,83.1869759,NH128C,,Azamgarh
hospital,Samarpit Hospital,25.7470184,82.6795542,Shahi Bridge,,Jaunpur
hospital,Dwarka Hospital,25.437487,81.8450908,Zero Road,Chowk,Prayagraj
hospital,Akash Hospital,25.3848185,82.5858783,NH731B,,Sant Ravidas Nagar
hospital,"Parth Hospital, Jaunpur",25.7367334,82.6761398,NH31;NH731,,Jaunpur
hospital,Shri Gangaram Memorial Hospital,25.247891,82.9940164,Varanasi Bypass Expressway,,Varanasi
hospital,Zohra Hospital,26.285864,83.5112429,NH227A,,Gorakhpur
hospital,Rehman Hospital,26.0809991,83.1910971,NH128C,,Azamgarh
hospital,Real Reliance Hospital,25.3669118,83.0259106,Ashoka road,,Varanasi
hospital,Ranjana Hospital,25.4382354,81.8445128,Zero Road,Chowk,Prayagraj
hospital,Ramakrishna Mission Home Of Service,25.3068304,82.9978198,Luxa Road,,Varanasi
hospital,"Vardan Hospital, Ambedkar Nagar",26.4506262,82.779566,Baskhari Jahangirganj Rajesultanpur Road,,Ambedkar Nagar
hospital,Nitin Surgical Center,26.4355638,82.5496562,SH5; SH30,,Ambedkar Nagar
hospital,Singh Medical And Surgical Centre,25.3264652,82.9927117,Patel Road,Cantonment,Varanasi
hospital,"Rama Hospital, Allahabad",25.452294,81.86083,Malviya Road,George Town,Prayagraj
hospital,Sri Ram Janaki Netralaya,26.7426534,83.3697899,SH1,,Gorakhpur
hospital,Jamea Hospital,25.3246623,83.0149859,Rabindranath Tagore Road,,Varanasi
hospital,"Geeta Hospital, Sultanpur",26.2513059,82.0689379,Faridi Gali,,Sultanpur
hospital,Surya Super Speciality Hospital,25.3051973,82.9805182,Raja Sir Motichand Road,,Varanasi
hospital,St Mary Hospital,25.315928,82.9106507,NH731B,,Varanasi
hospital,Guru Kripa Jagriti Hospital And Research Centre,25.4583031,81.8403155,Thornhill Road,Civil Lines,Prayagraj
hospital,Shikhar Hospital,25.4412243,81.8162088,Grand Trunk Road,Roshan Bagh,Prayagraj
hospital,Mukti Mission Sewa Hospital,25.3500933,83.0317504,Madan Mohan Malviya Road,Pilokothi,Varanasi
hospital,Jahangir Memorial Charitable Hospital,25.4025358,81.8692489,Mirzapur Road,Kharkauni,Prayagraj
hospital,Meghna Hospital and Research Center,25.2981978,82.9477684,Raja Moti Chand Road,,Varanasi
hospital,Sri Krishna Hospital and Urology Centre,26.7441571,83.3768293,SH1,,Gorakhpur
hospital,Madnani Medicare Pvt Ltd,25.4423942,81.8092552,Grand Trunk Road,Chakia,Prayagraj
hospital,Shivam Akshayavat Hospital,25.3852492,81.8741452,Mirzapur Road,ADA Colony,Prayagraj
hospital,Lifeline Hospital and Research Centre,26.0506256,83.1871717,NH128B,,Azamgarh
hospital,Jamuna Sewa Sadan and Research Centre,25.3586252,82.952923,NH31,,Varanasi
hospital,Sanmukh Hospital,25.4302771,82.8618097,NH31,,Varanasi
hospital,Varanasi Hospital And Medical Research Centre,25.2932811,82.9965229,Lane No.-2,,Varanasi
hospital,"Jeevan Deep Hospital, Bhadohi",25.3869981,82.592479,NH135A,,Sant Ravidas Nagar
hospital,Shakuntala Hospital,25.4537711,81.8426618,Tashkent Marg,Civil Lines,Prayagraj
hospital,"Virendra Hospital, Allahabad",25.4539839,81.8402796,Tashkent Marg,Civil Lines,Prayagraj
hospital,Svasti Hospital,25.4767798,81.850069,Stanley Road,Old Cantonment,Prayagraj
hospital,Ajay Hospital Accident Care and Surgical Hospital,25.342448,82.9774846,Central Jail Road,Cantonment,Varanasi
hospital,Rajeev Gandhi Memorial Hospital and Research Centre,26.0825114,83.1820835,NH128C,,Azamgarh
hospital,City Hospital and Orthopaedic and Taruma Center,25.4517419,81.8617031,Jawaharlal Nehru Road,George Town,Prayagraj
hospital,"Janseva Hospital, Varanasi",25.3026937,82.952709,Raja Moti Chand Road,,Varanasi
hospital,Arvind Surgical and Research Centre Pvt.Ltd.,25.4680026,81.8288192,Muir Road,Ashok Nagar,Prayagraj
hospital,Arunoday Hospital,25.3043668,82.9815736,Rathyatra Mahmoorganj Road,,Varanasi
hospital,Sneha Hospital,25.2555496,82.9586595,BLW Road,Bhullanpur,Varanasi
hospital,Varuna Hospital,25.3023421,82.9645711,Raja Moti Chand Road,,Varanasi
hospital,"Vivek Hospital, Varanasi",25.3006034,82.9560819,Raja Moti Chand Road,,Varanasi
hospital,Viveka Nand Hospital and Research Centre,25.1379724,82.5761953,Station Road,,Mirzapur
hospital,Siddharth Multi Speciality Hospital Science and Research Center,25.7354553,82.6797527,NH31;NH731,,Jaunpur
hospital,Sarthak Surgical Center,25.3579308,83.0112496,Gautam Buddha Rajpath Road,Pilokothi,Varanasi
hospital,Tyagi Hospital,26.0772963,83.1807759,NH128C,,Azamgarh
hospital,Sankatmochan Netralaya and Dental Care,25.2835877,82.9983911,Sankat Mochan Road,,Varanasi
hospital,"Navjeevan Hospital, Varanasi",25.2960203,82.9991037,Peace point Road,,Varanasi
hospital,"Phoenix Hospital, Allahabad",25.4559399,81.8616736,Jawaharlal Nehru Road,George Town,Prayagraj
hospital,Sardar Patel Hospital,25.4431995,81.8715656,NH19,Allahpur,Prayagraj
hospital,Sanjay Fracture Clinic and Maternity Centre,26.7342168,83.3665873,Gita Press Road,,Gorakhpur
hospital,Vedanta Hospital,26.0881073,83.1884345,NH128C,,Azamgarh
hospital,Dr. Sarojini Singh Hospital,25.2774771,82.9661643,BLW Road,Bhullanpur,Varanasi
hospital,Soumya Hospital,25.3945146,82.566994,NH731B,,Sant Ravidas Nagar
hospital,Tej Bahadur Sapru Hospital,25.4729624,81.845818,Stanley Road,Old Cantonment,Prayagraj
hospital,Nandini Medicare,25.3153485,82.9855648,Vidyapeeth Lanka Road,Cantonment,Varanasi
hospital,Shubham Hospitals,25.3117923,82.9856793,Vidyapeeth Lanka Road,Cantonment,Varanasi
hospital,Jagdish Hospital,26.7348828,83.3712637,Gita Press Road,,Gorakhpur
hospital,"Jain Hospital, Allahabad",25.4485522,81.853981,Lowther Road,George Town,Prayagraj
hospital,Santushti Hospital Pvt Ltd.,25.2826176,82.975713,University Road,Bhullanpur,Varanasi
hospital,"Vardaan Hospital, Varanasi",25.2829826,82.9749083,University Road,Bhullanpur,Varanasi
hospital,Ram Janani Hospital,26.7427666,83.3702049,SH1,,Gorakhpur
hospital,Maa Sharada Hospital,25.4394217,81.8572433,Defunct railway line,New Bairahana,Prayagraj
hospital,Hnm Shah Hospital,25.4327624,81.8176049,Allama Jawadi Road,Kareli,Prayagraj
hospital,Krishna Heart Care and Maternity Home,25.7399794,82.6845337,NH731,,Jaunpur
hospital,J P Memorial Hospital,25.7568582,82.694088,main road,,Jaunpur
hospital,"Sangam Hospital, Allahabad",25.4410889,81.8629107,NH30,New Bairahana,Prayagraj
hospital,"Priya Hospital, Allahabad",25.4502288,81.7779974,Kendranchal Road,Harwara,Prayagraj
hospital,Anand Mulispecilty Hospital,26.0773898,83.186404,NH128C,,Azamgarh
hospital,Annapurna Child and Maternity Clinic Pvt Ltd,26.7436375,83.357786,Kali Badi Road,,Gorakhpur
hospital,Netra Jyoti Centre,25.3581531,83.0144841,NH31,Pilokothi,Varanasi
hospital,Shivnath Hospital,25.3667543,83.0424316,NH31,,Varanasi
hospital,"Navjeevan Hospital, Sultanpur",26.2456502,82.0673682,Laksmanpur-Sastri Nagar Rd,,Sultanpur
hospital,"Singh Hospital, Ghazipur",25.5970814,83.5797358,NH24,,Ghazipur
hospital,Amardeep Hospital & Research Centre,25.4375479,81.8433035,Zero Road,Chowk,Prayagraj
hospital,"Nav Jyoti Hospital, Allahabad",25.4327503,81.7877697,GE Road,Chakia,Prayagraj
hospital,Sushila Maternity And Nursing Home,25.4598731,81.865886,Hashimpur Road,George Town,Prayagraj
hospital,Abhilasha Hospital And Research Centre Pvt.Ltd,25.4458415,81.8525072,MG Marg,Bairhana,Prayagraj
hospital,R.K. Hospital and Trauma Research Centre,26.053297,82.6870026,SH34,,Jaunpur
hospital,R.K Netralaya,25.3036115,82.9756862,Raja Sir Motichand Road,,Varanasi
hospital,R. C. Hospital,25.3010439,83.0836343,Varanasi Ring Road,,Chandauli
hospital,Vandana Super Speciality Hospital,25.4613007,81.8338403,Maharishi Dayanand Marg,Civil Lines,Prayagraj
hospital,Dhiraji Hospital,25.6437776,82.920776,NH731,,Jaunpur
hospital,Ashirvad Hospital and Research Center,25.3052664,82.9864379,Rathyatra Mahmoorganj Road,,Varanasi
hospital,Sunita Hospital,25.7396424,82.6656336,NH31;NH731,,Jaunpur
hospital,Sudha Surgical Hospital,25.3512519,82.9779245,Kautilya Kon Road,,Varanasi
hospital,"Sarodaya Hospital, Allahabad",25.4544846,81.8572352,Lowther Road,George Town,Prayagraj
hospital,Aman Hospital,25.4592004,81.8383109,Thornhill Road,Civil Lines,Prayagraj
hospital,Om Surgical Center and Maternity Home,25.3563214,83.0096523,NH31,Pilokothi,Varanasi
hospital,"Vatsalya Hospital, Varanasi",25.3484644,82.975772,Central Jail Road,Cantonment,Varanasi
hospital,Dev Matenity Home,25.3422395,82.9767966,Central Jail Road,Cantonment,Varanasi
hospital,Alliance Hospital,25.3190508,82.9965833,Nai Sarak Road,,Varanasi
hospital,"New Life Hospital, Varanasi",25.3129735,82.9900937,Sonia Road,,Varanasi
hospital,New Sahara Hospital,25.3317015,83.0236682,Madan Mohan Malviya Road,Pilokothi,Varanasi
hospital,Anand Hospital,25.2854642,83.1191824,MDR65E,,Chandauli
hospital,Anand Hospital,25.4639609,81.8480064,Muir Road,Katra,Prayagraj
hospital,"Life Care Hospital, Gorakhpur",26.7439702,83.3719668,SH1,,Gorakhpur
hospital,Ruma Hospital,25.9305332,82.0049501,NH330,,
hospital,S P Surgical Centre,25.3425037,82.9766236,Central Jail Road,Cantonment,Varanasi
hospital,Shree Ram Laxminarayan Marwari Hindu Hospital - Varanasi,25.3093752,83.0070332,Dashashwamedh Road,,Varanasi
hospital,Tilak Hospital and Maternity Home,25.4443541,81.8734278,NH19,Allahpur,Prayagraj
hospital,Alaknanda Hospital Pvt Ltd.,25.2879096,83.001109,Ravindrapuri Road,,Varanasi
hospital,Shivganga Hospital,25.2537156,82.9964612,Semi Circle RD,,Varanasi
hospital,Shri Shyamlal Memorial Hospital,25.3804683,82.5691846,NH135A,,Sant Ravidas Nagar
hospital,"Shubham Hospital, Varanasi",25.3438983,82.9881918,Makbul Alan Road,Cantonment,Varanasi
hospital,Netra Jyoti Hospital and Research Center,25.2896883,83.0042418,Pandit Manmohan Malviya Road,,Varanasi
hospital,"Shraddha Hospital, Jaunpur",25.7392249,82.6874994,NH731,,Jaunpur
hospital,Sheetala Care Centre,26.7449338,83.3656207,Gita Press Road,,Gorakhpur
hospital,"Ayushman Hospital, Varanasi",25.3039522,82.9867731,Rathyatra Mahmoorganj Road,,Varanasi
hospital,Shyama Hospital,25.3552798,82.9655729,NH31,,Varanasi
hospital,Tamanna Hospital,25.4577165,81.8638489,Hashimpur Road,George Town,Prayagraj
hospital,"Harsh Hospital and Maternity Home, Allahabad",25.4315028,81.8501569,Bank Road,New Bairahana,Prayagraj
hospital,"Prabhat Hospital, Allahabad",25.5324295,81.8539981,NH30,Shantipuram,Prayagraj
hospital,Swastik Surgical,25.3592045,82.9591839,NH31,,Varanasi
hospital,Prachi Hospital Pvt Ltd,25.5275209,81.8537596,NH30,Shantipuram,Prayagraj
hospital,Swaraj Hospital,26.2664083,82.0744157,Faizabad-Sultanpur road,,Sultanpur
hospital,Sushila Devi Memorial Hospital,26.0574549,82.6841958,SH34,,Jaunpur
hospital,Prasoon Hospital,25.363961,83.0360573,NH31,,Varanasi
hospital,Pashupati Nursing Home,25.4526682,81.8558304,Lowther Road,George Town,Prayagraj
hospital,Galaxy Hospital,25.3050931,82.9750063,Raja Sir Motichand Road,,Varanasi
hospital,Dr. D. D. Tripathi Memorial Hospital,25.1558133,82.5830014,Station Road,,Mirzapur
hospital,Chhaparia Hospital,26.7425732,83.3694841,SH1,,Gorakhpur
hospital,Kashi Medicare,25.350789,83.0037045,Panch Koshi Road,Pilokothi,Varanasi
hospital,Parvati Hospital Pvt Ltd,25.4542981,81.861392,Jawaharlal Nehru Road,George Town,Prayagraj
hospital,Mahashweta Hospital Pvt. Ltd.,25.3400505,82.9920933,Makbul Alan Road,Cantonment,Varanasi
hospital,G.S Chandraul Hospital and Reasearch Centre,25.4490511,81.7508575,Grand Trunk Road,Bamrauli,Prayagraj
hospital,Isha Hosital,25.7330029,82.6725617,NH135A,,Jaunpur
hospital,Dr. Agrawals Life Line Hospital,25.4305145,81.8182694,Allama Jawadi Road,Kareli,Prayagraj
hospital,Apex Eye Hospital,25.7355797,82.6953149,NH31,,Jaunpur
hospital,Care Hospital - Varanasi,25.2831802,82.9699691,University Road,Bhullanpur,Chandauli
hospital,Ojha Hospital,25.455078,81.8636557,Jawaharlal Nehru Road,George Town,Prayagraj
hospital,"Ganga Hospital, Allahabad",25.4652873,81.848852,Muir Road,Katra,Prayagraj
hospital,Vineeta Hospital Pvt Ltd,25.5225384,81.8654629,NH30,Shantipuram,Prayagraj
hospital,Nangalia Hospital,26.7410605,83.3641767,Gita Press Road,,Gorakhpur
hospital,Bk Heart Hospital Pvt Ltd,25.2826237,82.9706222,University Road,Bhullanpur,Varanasi
hospital,Kids Care Hospital,25.2886212,82.9940888,Sankat Mochan Road,,Varanasi
hospital,Rohit Laproscopic Surgical Center,25.3091348,82.9838206,SIgra Mahmourganj Road,,Varanasi
hospital,J.P. Memorial Hospital- Allahabad,25.4467048,81.8536506,MG Marg,Bairhana,Prayagraj
hospital,Swami Harshankaranand Ji Hospital and Research Center,25.2836471,82.9714912,University Road,Bhullanpur,Varanasi
hospital,Sri Sai Surgical and Maternity Hospital,25.2821724,82.9919971,BHU DLW Road,,Varanasi
hospital,"Saba Hospital, Mau",26.0229049,82.9230016,SH34,,Mau
hospital,Canossa Hospital,25.8951054,81.9491571,NH31,,
hospital,Shakuntala Hospital and Research Center,25.3060181,82.9371,NH731B,,Varanasi
hospital,"Saba Hospital, Azamgarh",26.0852507,83.2846813,Shahgarh Mubarakpur Road,,Azamgarh
hospital,Heartline Cardiac Care Centre,25.4528057,81.838245,Lal Bahadur Shastri Marg,Civil Lines,Prayagraj
hospital,Gomti Hospital and Research Centre Pvt Ltd,26.2730487,82.0772918,Sultanpur - Kadipur Road,,Sultanpur
hospital,"Sundaram Hospital, Allahabad",25.2884224,81.9295375,NH135C,,Prayagraj
hospital,Vijay Memorial Hospital,25.4527421,81.7801378,Kendranchal Road,Harwara,Prayagraj
hospital,"Life Line Hospital, Varanasi",25.2832627,82.9808334,University Road,Bhullanpur,Varanasi
hospital,Sah Hospital,25.3239083,83.0044448,St. Kabir Road,,Varanasi
hospital,Gaurav Charitable Hospital,26.2471333,82.0680146,Laksmanpur-Sastri Nagar Rd,,Sultanpur
hospital,Hindu Sewa Sadan Hospital,25.3118509,83.0085801,Dalmandi Road,,Varanasi
hospital,Yashlok Hospital and Research Hospital,25.4601867,81.8657197,Hashimpur Road,George Town,Prayagraj
hospital,Saraswati Heart Care,25.4530579,81.8561448,Lowther Road,George Town,Prayagraj
hospital,Sri Sitaram Memorial Hospital,25.2851738,81.9339886,NH135C,,Prayagraj
hospital,"Srijan Hospital, Varanasi",25.3569528,83.0063143,Gautam Buddha Rajpath Road,Pilokothi,Varanasi
hospital,"Jaya Hospital, Allahabad",25.4434163,81.8666491,Jawaharlal Nehru Road,Bairhana,Prayagraj
hospital,Maa Vaishno Child And Maternity Clinic,26.742669,83.3693071,SH1,,Gorakhpur
hospital,K G Nanda Hospital,25.260181,83.2550778,NH19,,Chandauli
hospital,Aashadeep Hospital,26.2525501,82.2279064,SH34,,Sultanpur
hospital,Prayag Healthcare Center,25.2960299,82.9434594,Raja Moti Chand Road,,Varanasi
hospital,"Pooja Hospital, Allahabad",25.4529673,81.8619901,Jawaharlal Nehru Road,George Town,Prayagraj
hospital,Popular Hospital,25.292644,82.9705367,Flyover,Bhullanpur,Varanasi
hospital,Harsh Maternity And Nursing Home,25.153709,82.5721331,Station Road,,Mirzapur
hospital,Raj Eye Hospital,26.7448169,83.3789191,SH1,,Gorakhpur
hospital,Seema Health Care and Research Center,26.7057053,82.1375115,NH330,,Ayodhya
hospital,Jyoti Institute Of Medical and Rehabilitation Sciences(Jimars),25.4573823,81.8597652,Hashimpur Road,George Town,Prayagraj
hospital,Varadan Hospital,25.3509156,82.9768342,Kautilya Kon Road,,Varanasi
hospital,Kumar Surgical Nursing Home,25.7496613,82.6933063,NH731,,Jaunpur
hospital,J.C. Maternity Centre,25.474104,81.8517905,Stanley Road,Old Cantonment,Prayagraj
hospital,Eye Care Hospital,26.0783822,83.1723598,NH28,,Azamgarh
hospital,Mall Hospital and Health Care,26.744899,83.3792581,SH1,,Gorakhpur
hospital,Arogya Chikitsalaya,25.3021699,82.9313258,NH731B,,Varanasi
hospital,Kriti Cancer Institute and Research Centre,25.4491387,81.8545359,Lowther Road,George Town,Prayagraj
hospital,Maa Tara Hospital,25.7380913,82.6632856,NH31,,Jaunpur
hospital,Priya Multispeciality Hospital Pvt.Ltd.,25.3188013,82.9920584,Patel Road,Cantonment,Varanasi
hospital,Saket Hospital,25.45784,81.8711485,Bakshi Bandh,Allahpur,Prayagraj
hospital,Iqbal Hospital,26.0766145,83.1816825,NH128C,,Azamgarh
hospital,Hayat Hospital & Maternity Center,25.4024268,81.8696527,Arail Road,Kharkauni,Prayagraj
hospital,Drs Hospital,25.4503565,81.7667388,Grand Trunk Road,Bamrauli,Prayagraj
hospital,Swami Vivekanand Jan Kalyan Hospital,25.2579469,82.961565,BLW Road,Bhullanpur,Varanasi
hospital,Aashirwad Hospital And Research Centre,25.7376672,82.6737405,NH31;NH731,,Jaunpur
hospital,Kamla Hospital,25.7380768,82.6853894,NH731,,Jaunpur
hospital,Pragya Hospital,26.7430307,83.3710827,SH1,,Gorakhpur
hospital,Kashi Hospital,25.2804967,82.9677971,Chunar Road,Bhullanpur,Varanasi
hospital,Asha Hospital,25.4662808,81.8269953,Muir Road,Ashok Nagar,Prayagraj
hospital,Karma Health Centre,25.3474587,81.8309348,Rewa Road,,Prayagraj
hospital,Heiwel Hospital and Rehabilitaition Center,25.3527657,82.96783,Kautilya Kon Road,,Varanasi
hospital,Sarnath Hospital,25.3605676,83.0265085,NH31,,Varanasi
hospital,Laxmi Health Care and Hospital,25.7801071,82.6904869,NH135A,,Jaunpur
hospital,Aryan Hospital,26.7386077,83.3733599,SH1,,Gorakhpur
hospital,Swastik Eye and Dental Care,25.9372824,83.5682842,Sahadatpura Rd.,,Mau
hospital,Apex Hospital,25.2831311,82.9684355,Chunar Road,Bhullanpur,Varanasi
hospital,Harshlok Eye Care Centre,25.3543803,82.9624132,Jaunpur Road,,Varanasi
hospital,Mrittunjai Hospital,25.1456148,82.5711018,Station Road,,Mirzapur
hospital,Mrityunjay Hospital,25.3213263,83.0129261,Rabindranath Tagore Road,,Varanasi
hospital,Pragya Multi Speciality Hospital and Research Center,25.3757006,82.9161931,NH31,,Varanasi
hospital,Ram Krishna Sewashram,25.1517029,82.530469,Ojhala Bridge,,Mirzapur
hospital,Dr R D Memorial Charitable Hospital,25.2608414,83.2576293,NH19,,Chandauli
hospital,Vandna Hospital,26.2361256,82.0656809,NH128;330;731,,Sultanpur
hospital,"District Hospital, Sultanpur",26.2627557,82.069966,GN ROAD,,Sultanpur
hospital,Ayushman Hospital and Trauma Centre,25.332967,83.0144739,GT Road,Pilokothi,Varanasi
hospital,Narayan Swaroop Hospital,25.4498431,81.7643604,Grand Trunk Road,Bamrauli,Prayagraj
hospital,Hospital Harsha,25.3007101,83.0023755,Durgakund Road,,Varanasi
hospital,Institute Of Medical Science and S.S.Hospital,25.2744502,82.9995149,Diagonal Road,,Varanasi
hospital,Medwin Hospitals And Research Centre,25.3205662,83.0127322,Rabindranath Tagore Road,,Varanasi
hospital,Kamla Nehru Memorial Hospital,25.4591151,81.8613611,Hashimpur Road,George Town,Prayagraj
hospital,Alok Health Care Hospital Pvt Ltd,25.2879707,83.004762,Assi Ghat Road,,Varanasi
hospital,Dr Ram Bilas Fracture and Surgical Centre,25.3109998,82.9868113,Vidyapeeth Lanka Road,Cantonment,Varanasi
hospital,Sudbhawana Hospital,25.2788183,82.9996276,BHU DLW Road,,Varanasi
hospital,Goverment hospital,24.7785109,82.093446,MD1005,,Mauganj
hospital,Sadar Hospital Kaimur,25.0398593,83.6079633,NH219,,Kaimur
hospital,"Referral Hospital,Ramgarh",25.292442,83.659746,NH319A,,Kaimur
hospital,Government Hospital SONGAR,25.9098683,82.7515923,,,Jaunpur
hospital,Government Hospital Azmatgarh,26.1574109,83.3596833,NH128C,,Azamgarh
hospital,MAHARAJA BALAVANT SINGH COMBINED DISTRIC HOSPITAL,25.3956644,82.5650775,NH731B,,Sant Ravidas Nagar
hospital,Government Hospital,26.0400073,83.0479925,MDR158E,,Azamgarh
hospital,Rajkiya Mahila Chikitsalaya Mughalsarai,25.2824618,83.1223165,MDR65E,,Chandauli
hospital,Mahen,26.3260512,83.6570256,MDR78E,,Deoria
hospital,District Male Hospital Pratapgarh,25.9218299,81.9990201,NH330,,
hospital,District Women Hospital Jaunpur,25.7592013,82.6968142,NH731,,Jaunpur
hospital,Government Hospital Anapur,25.6193924,81.688077,NH30,,Prayagraj
hospital,Government Hospital Kadipur,26.1672645,82.3709553,MDR113E,,Sultanpur
hospital,Government Hospital,26.0432547,83.2883379,Sathiyaon Mubarakpur Road,,Deoria
hospital,Govt. Hospital,25.3295693,82.4653718,Gyanpur-Bhadohi Road,,Sant Ravidas Nagar
hospital,"Goverment hospital,Dildar Nagar",25.4254554,83.6665595,Phooli to Alamgag Road,,Ghazipur
hospital,District Women Hospital Pratapgarh,25.9221279,81.9986835,NH330,,
hospital,Government Hospital Pachewara,25.1581063,82.9559425,NH35,,Mirzapur
hospital,District Women Hospital Mau,25.9432027,83.5691249,Sahadatpura Rd.,,Mau
hospital,Government Hospital,26.3964803,83.0721076,Jahangirganj Kamhariya Ghat Road,,Ambedkar Nagar
hospital,Government Hospital Chak Goraiya,25.1334662,82.8158741,SH74,,Mirzapur
hospital,Government Hospital PARMANPUR,25.7631436,83.1902173,MDR53E,,Azamgarh
hospital,Government Hospital Diyara,26.218467,82.2821856,SH34,,Sultanpur
hospital,Government Hospital RASULPUR,26.2244566,83.5894346,,,Mau
hospital,Government Hospital Adari,25.9840993,83.6205871,NH128B,,Mau
hospital,MAHATMA JYOTIBA PHULE DISTRICT HOSPITAL,26.4466468,82.5606868,SH5,,Ambedkar Nagar
hospital,"Government Hospital,Danoo Pur",25.4215976,82.7122906,SH98,,Varanasi
hospital,Government Hospital Airakunda,25.8158897,83.2969974,MDR166E,,Azamgarh
hospital,Government Hospital Khoriya,26.6729884,82.9300437,MDR93E,,Basti
hospital,Shahgarh Govt. Hospital,26.043524,83.2210077,NH128B,,Azamgarh
hospital,District Male Hospital Azamgarh,26.0827457,83.1900376,NH128C,,Azamgarh
hospital,Manohar Das EYE Hospital,25.4402567,81.8277544,Grand Trunk Road,Roshan Bagh,Prayagraj
hospital,District Women Hospital,25.1522759,82.5767586,Station Road,,Mirzapur
hospital,Govt Hospital Nonar Tulsi Ashram,25.340059,83.3494212,,,Chandauli
hospital,Medical Collage Azamgarh,25.9046515,83.2049963,,,Azamgarh
hospital,District Female Hospital Azamgarh,26.0637645,83.1833871,shiv temple,,Azamgarh
hospital,Government Hospital Halliya,24.8279468,82.3259385,NH135C,,Mirzapur
hospital,Jiyanpur Goverment Hospital,26.1613935,83.3393991,NH128C,,Azamgarh
hospital,Government Hospital,25.4912268,82.8273245,NH31,,Varanasi
hospital,Govt. Hospital,26.6321041,83.2994141,Gorakhpur Link Expressway,,Gorakhpur
hospital,Government Hospital AMEYMAFI,26.1926847,81.9201538,NH128,,Amethi
hospital,Government Hospital Hatiya,25.847722,82.2924364,NH319D,,Jaunpur
hospital,District Male Hospital Ghazipur,25.5574522,83.5475761,NH31,,Ghazipur
hospital,MAHARAJA CHET SINGH DISTRICT HOSPITAL,25.3300687,82.4654724,Gyanpur-Bhadohi Road,,Sant Ravidas Nagar
hospital,Government Hospital Tiwaran,25.5154329,82.6785283,,,Jaunpur
hospital,Government Hospital Sathariya,25.6605677,82.235245,NH31,,Jaunpur
hospital,PT K P T Distt.Combined Hospital Chandauli,25.2589427,83.2734892,NH19,,Chandauli
hospital,Moti Lal Nehru District Hospital,25.4392781,81.8285215,Grand Trunk Road,Roshan Bagh,Prayagraj
hospital,Government Hospital RAMGANJ,26.1161015,82.0410302,NH330,,Amethi
hospital,Government. hospital khajni,26.6652993,83.2497154,MDR49E,,Gorakhpur
hospital,Sarkari Hospital,25.185554,82.6310129,Bhatauli Ghat Bridge,,Mirzapur
hospital,Sarkari Hospital Anauni,25.6037091,83.1424512,NH731,,Ghazipur
hospital,Government Hospital Bharahu ka pura,25.9564898,83.5432845,rampur-chakiya road,,Mau
hospital,Government Hospital Bhaipur,25.0811096,83.0860993,,,Mirzapur
hospital,District Women Hospital Ghazipur,25.5822075,83.5819539,NH31,,Ghazipur
hospital,Government Hospital Padarkunda,26.1851542,83.4120964,Baluwa-Satana Road,,Azamgarh
hospital,"Government Hospital,GOBARAHA",25.3613519,83.1609303,Varanasi Ring Road,,Varanasi
hospital,Government Hospital Bajarang Nagar,25.6535266,82.9935095,NH28,,Jaunpur
hospital,District Male Hospital Mirzapur,25.1544088,82.5771099,Station Road,,Mirzapur
hospital,Atrauliya Government Hospital,26.3337516,82.9468001,Atraulia Atraith Road,,Azamgarh
hospital,Government Hospital,25.9765307,82.7512108,MDR97E,,Azamgarh
hospital,Government T.B. Hospital,25.4997681,81.8638247,NH30,Teliyarganj,Prayagraj
hospital,Contonment Hospital,25.3318796,82.9791974,Nathusingh Road,Cantonment,Varanasi
hospital,P.M.C. Hospital,25.287653,83.0018096,Ravindrapuri Road,,Varanasi
hospital,Jagat Hospital,25.3841559,82.9046875,NH31,,Varanasi
hospital,Oppo Hospital Maduadih,25.2947692,82.9713814,Flyover,Bhullanpur,Varanasi
hospital,Raju Hospital,25.3799982,82.9939926,NH28,,Varanasi
hospital,Pankhudi Hospital,25.3293525,83.0178987,GT Road,Pilokothi,Varanasi
hospital,Sadguru Hospital,25.3458516,82.9962729,Premchand Road,Cantonment,Varanasi
hospital,LG Hospital,25.3527952,82.9819036,Panch Koshi Road,,Varanasi
hospital,Aryan Hospital,25.3790856,82.9758181,Nawalpur Road,,Varanasi
hospital,Suresh Singh Memorial Hospital,25.3528561,83.0018585,NH31,Pilokothi,Varanasi
hospital,Jeevan Anmol Hospital,25.2791873,82.9988665,BHU DLW Road,,Varanasi
hospital,Ritu Hospital,25.314058,82.956667,NH731B,,Varanasi
hospital,Rama Medical Care Centre,25.3097288,82.9909972,Vidyapeeth Lanka Road,Cantonment,Varanasi
hospital,Delight Hospital,25.256901,82.9593747,BLW Road,Bhullanpur,Varanasi
hospital,Vatsalya Children Hospital,25.3521054,82.9816775,Mahavir Road,,Varanasi
hospital,Usha Memorial Hospital,25.3397137,82.9256749,Daniyalpur Link Road,,Varanasi
hospital,Jiwan Jyoti Children Hospital,25.2680252,82.8472511,NH19,,Varanasi
hospital,Jyotirmay Hospital,25.3104055,82.9841904,SIgra Mahmourganj Road,,Varanasi
hospital,Heritage Hospital,25.2855147,82.9946911,Sankat Mochan Road,,Varanasi
hospital,Popular Hospital,25.3053488,82.986451,Rathyatra Mahmoorganj Road,,Varanasi
hospital,Sudha Surgical Multi Speciality Hospital,25.3508619,82.9760521,Kautilya Kon Road,,Varanasi
hospital,Chadr Prabha Hospital,25.352927,82.9786969,Panch Koshi Road,,Varanasi
hospital,Amrit Milan Hospital,25.3840791,82.9710842,Varanasi Ring Road,,Varanasi
hospital,Pragya Maternity & Child Care Hospital,25.2792438,83.0008893,BHU DLW Road,,Varanasi
hospital,Dr. R S Singh Hospital,25.3618976,82.9523441,NH31,,Varanasi
hospital,Vanshika Children Hospital,25.3517441,82.9811912,Mahavir Road,,Varanasi
hospital,Prabhat Hospital Bhelupur,25.3039498,82.9900586,Vidyapeeth Lanka Road,,Varanasi
hospital,Prakhar Hospital,25.360696,82.941177,Jaunpur Road,,Varanasi
hospital,R.S. Hospital and Research Centre,25.360778,82.9506846,Flyover,,Varanasi
hospital,Bharti Hospital,25.3603471,82.9485332,Nawalpur Road,,Varanasi
hospital,Guru Nanak Hospital,25.3071525,82.9931648,Guru Nanak Road,,Varanasi
hospital,Ramkrishna Hospital & Child Care Centre,25.2622943,82.9656,SH74,,Varanasi
hospital,Health Care Hospital,25.306562,82.9750547,Raja Sir Motichand Road,,Varanasi
hospital,Sangam Hospital,25.356267,82.953296,Jaunpur Road,,Varanasi
hospital,Friend's Hospital,25.34965,83.004945,Panch Koshi Road,Pilokothi,Varanasi
hospital,Smayan Hospital,25.311236,82.986316,Vidyapeeth Lanka Road,Cantonment,Varanasi
hospital,Medicity Hospital & Critical Care,25.300271,82.994653,Swami Vivekanand Road,,Varanasi
hospital,Shubham Banaras Hospital,25.3119109,82.9865396,Vidyapeeth Lanka Road,Cantonment,Varanasi
hospital,New Khushbu Hospital,25.3646315,82.974667,Sindhaura Road,,Varanasi
hospital,Vardan Hospital and Laparoscopic Centre,25.35072,82.977243,Kautilya Kon Road,,Varanasi
hospital,Getwell Hospital,25.2760391,82.9682885,Chunar Road,Bhullanpur,Varanasi
hospital,Prasad Hospital,25.3503004,82.9930871,NH28,,Varanasi
hospital,Vijaya Hospital,25.2705135,82.7175129,NH19,,Varanasi
hospital,Trimurti Hospital,25.3520678,82.9714491,Kautilya Kon Road,,Varanasi
hospital,Neelam Hospital,25.3793331,82.9935422,NH28,,Varanasi
hospital,Pratik Hospital,25.2838042,82.9699867,University Road,Bhullanpur,Varanasi
hospital,Chirayu Medi Surgical Hospital,25.3083121,82.9849165,SIgra Mahmourganj Road,,Varanasi
hospital,S-Base Hospital,25.2787979,83.0043951,Ramnagar Road,,Varanasi
hospital,Maulana Azad Bunkar Hospital,25.331716,83.007717,GT Road,Pilokothi,Varanasi
hospital,Police Line Hospital,25.350571,82.9886593,Panch Koshi Road,,Varanasi
hospital,Jeevan Rekha Hospital,25.353663,83.0025949,NH31,Pilokothi,Varanasi
hospital,Vaidik Hospital and Trauma Centre,25.2974834,82.9437303,Raja Moti Chand Road,,Varanasi
hospital,Shubhyash Hospital & Speciality Clinic,25.3507954,82.9752551,Kautilya Kon Road,,Varanasi
hospital,Shivam Hospital,25.300895,82.9534599,Raja Moti Chand Road,,Varanasi
hospital,Janta Sewa Hospital,25.3042531,83.0029649,Durgakund Road,,Varanasi
hospital,ASG Eye Hospital,25.305723,82.984596,Rathyatra Mahmoorganj Road,,Varanasi
hospital,Prince Hospital,25.354029,83.004075,NH31,Pilokothi,Varanasi
hospital,Kunta Devi Hospital,25.3650305,82.9593359,Nawalpur Road,,Varanasi
hospital,Baba Kinaram Hospital,25.2977607,82.9924693,Peace point Road,,Varanasi
hospital,Jhumawati Hospital,25.3161662,82.9679451,NH731B,,Varanasi
hospital,Filaria Hospital - NCDC,25.3350788,83.001357,GT Road,Pilokothi,Varanasi
hospital,Kunjan Homeo Hospital & Research Centre,25.350619,82.9705221,Kautilya Kon Road,,Varanasi
hospital,Healthmax Hospital,25.3242107,83.0031446,St. Kabir Road,,Varanasi
hospital,Raj Memorial Hospital,25.3535742,83.0039645,NH31,Pilokothi,Varanasi
hospital,Laxmi Hospital,25.3276365,82.9903258,GT Road,Cantonment,Varanasi
hospital,Public Welfare Hospital,25.3051959,82.9937819,Vidyapeeth Lanka Road,,Varanasi
hospital,G.S.Memorial Plastic Surgery Hospital and Trauma Centre,25.3023319,82.974999,Manduadih Flyover,,Varanasi
hospital,Verma Hospital,25.302198,82.9644864,Raja Moti Chand Road,,Varanasi
hospital,K.L.Hospital and Trauma Centre,25.2584064,83.0366509,National Highway 7,,Varanasi
hospital,Sanjeevni Hospital,25.3538348,82.9778179,Panch Koshi Road,,Varanasi
hospital,Global Hospital & Trauma Centre,25.2653332,82.9654152,BLW Road,Bhullanpur,Varanasi
hospital,Versova Hospital,25.2576159,82.9611938,BLW Road,Bhullanpur,Varanasi
hospital,Saroj Hospital,25.2470817,82.9510253,SH74,,Varanasi
hospital,Kalpana Hospital,25.35316,82.983488,Panch Koshi Road,,Varanasi
hospital,मेट्रो ऋषिदेव अस्पताल,25.2562993,82.9599053,BLW Road,Bhullanpur,Varanasi
hospital,Midway Hospital,25.3150869,82.983205,Vidyapeeth Lanka Road,Cantonment,Varanasi
hospital,M.S.D Hospital,25.3543255,82.9762314,Sindhaura Road,,Varanasi
hospital,Rohit Hospital,25.3617698,82.9478768,Flyover,,Varanasi
hospital,Maitri Hospital,25.3175707,82.9742152,Cariapa Road,Cantonment,Varanasi
hospital,New Phoenix Hospital,25.2827533,82.9683006,Chunar Road,Bhullanpur,Varanasi
hospital,Indra Multispeciality Hospital & Diagnostic Centre,25.2473308,82.9522276,SH74,,Varanasi
hospital,Mishal Hospital & Health Care Unit,25.2827214,82.9400178,walking,,Varanasi
hospital,Anant Hospital,25.2862554,82.9228527,NH731B,,Varanasi
hospital,Avi Hospital,25.330641,82.995829,Sanskrit University Road,Cantonment,Varanasi
hospital,City Ideal Hospital,25.3310155,83.0137611,GT Road,Pilokothi,Varanasi
hospital,Pitambari Hospital,25.2488922,82.9866484,Varanasi Bypass Expressway,,Varanasi
hospital,Prithvi Hospital,25.2966727,82.9999593,Peace point Road,,Varanasi
hospital,Sudarshana Hospital,25.313519,82.9678978,Mandua Dih Road,,Varanasi
hospital,Gem Hospital,25.327632,83.027387,Madan Mohan Malviya Road,,Varanasi
hospital,Maa Gouri Hospital,25.346699,82.996889,Premchand Road,Cantonment,Varanasi
hospital,Janta Hospital and Maternity Centre,25.244814,82.951158,SH74,,Varanasi
hospital,Prakash Hospital,25.2699123,82.7185358,NH19,,Varanasi
hospital,Shri Gangaram Memorial Hospital,25.244372,82.979733,Varanasi Bypass Expressway,,Varanasi
hospital,Nityanand Hospital,25.3655945,83.0255416,NH31,,Varanasi
hospital,Nova Hospital Shivpur Varanasi,25.3620384,82.9461627,NH31,,Varanasi
hospital,"Jain Hospital, Varanasi",25.3498326,82.9920187,Panch Koshi Road,,Varanasi
hospital,Mandhata Hospital and Trauma Centre,25.3650418,82.9745778,Sindhaura Road,,Varanasi
hospital,Dirghayu Hospital and Surgical Centre,25.3600727,83.0200794,Gautam Buddha Rajpath Road,Pilokothi,Varanasi
hospital,Rudrakashi Hospital,25.34992,82.9831869,Mahavir Road,,Varanasi
hospital,Ansh Neuro and Maternity Centre,25.3486582,82.967746,Central Jail Road,,Varanasi
hospital,Bhargava Hospital and Trauma Centre,25.3497167,82.9911283,Panch Koshi Road,,Varanasi
hospital,Sarang Medicare Hospital and Dental Research Centre,25.3623019,83.039967,NH31,,Varanasi
hospital,Ansh Neuro and Maternity Centre,25.3469853,82.9699986,Central Jail Road,,Varanasi
hospital,Chandra Hospital,25.3070243,82.9435133,NH731B,,Varanasi
hospital,Shivangan Hospital,25.3079915,82.9349485,NH731B,,Varanasi
hospital,Prakashdeep Hospital,25.3509938,82.9767235,Kautilya Kon Road,,Varanasi
hospital,Peace Point Hospitals,25.2970026,82.9981729,Peace point Road,,Varanasi
hospital,Rajapuriya Heart Hospital,25.293286,82.996088,Lane No.-2,,Varanasi
hospital,Sabika Hospital,25.2943269,82.9797908,,,Varanasi
hospital,Upkar Eye Hospital,25.283863,82.9792278,University Road,Bhullanpur,Varanasi
hospital,Ashutosh Hospital,25.3010102,82.9468621,Raja Moti Chand Road,,Varanasi
hospital,New Jagriti Hospital & Research Centre,25.2584272,82.9635472,SH74,,Varanasi
hospital,Ganga Sewa Sadan Hospital,25.3038069,82.9592991,Raja Moti Chand Road,,Varanasi
hospital,जाॅर्जियन सुपरस्पेशिएलीटी अस्पताल,25.2626172,82.9649674,Chunar Road,Bhullanpur,Varanasi
hospital,Hemant Singh Hospital,25.357824,82.9651728,NH31,,Varanasi
hospital,Lilawati Hospital,25.275215,83.010057,Ramnagar Road,,Varanasi
hospital,Military Hospital,25.3334913,82.9701359,Mayo Road,Cantonment,Varanasi
hospital,Purnima Hospital,25.287879,82.9529316,walking,,Varanasi
hospital,Holy City Hospital and Trauma Centre,25.3580501,83.0069587,Gautam Buddha Rajpath Road,Pilokothi,Varanasi
hospital,Sarvodaya Hospital,25.3334728,83.0025498,GT Road,Pilokothi,Varanasi
hospital,Amarnath Seva Sansthan Hospital,25.3621084,82.9541844,NH31,,Varanasi
hospital,New Medicare Hospital,25.3203803,82.9866726,Vidyapeeth Lanka Road,Cantonment,Varanasi
hospital,Prime Kidney Stone Centre & Urology Hospital,25.3001405,82.9945731,Swami Vivekanand Road,,Varanasi
hospital,S N Yadav Hospital,25.350184,83.022946,Madan Mohan Malviya Road,Pilokothi,Varanasi
hospital,Arogya Hospital,25.2580075,82.9615306,BLW Road,Bhullanpur,Varanasi
hospital,Ashirvad Hospital & Research Centre,25.3044817,82.9781929,Raja Sir Motichand Road,,Varanasi
hospital,Uttakarsh Hospital,25.3040185,82.9536821,NH731B,,Varanasi
hospital,Sai Raj Hospital,25.3331628,82.9907332,Raja Bazar Road,Cantonment,Varanasi
hospital,Maa Rajwati Hospital,25.2710147,82.9670171,Panchkroshi Road,,Varanasi
hospital,Yashoda Memorial Hospital,25.3528627,82.9831882,Panch Koshi Road,,Varanasi
hospital,Janseva Hospital and Research Centre Pvt Ltd,25.256328,83.0368468,NH35,,Varanasi
hospital,Saraswati Hospital,25.351731,82.975836,Sindhaura Road,,Varanasi
hospital,Bhardwaj Hospital,25.3153178,82.9632672,NH731B,,Varanasi
hospital,Maxwell Hospital,25.2474055,82.9933785,Varanasi Bypass Expressway,,Varanasi
hospital,Peace Point Hospital Pvt. Ltd.,25.2951669,83.0005744,Durgakund Road,,Varanasi
hospital,K. P. Memorial Hospital,25.3622038,82.9540022,NH31,,Varanasi
hospital,Kashi Hospital,25.3506287,82.9783479,Kautilya Kon Road,,Varanasi
hospital,Sri Ram Hospital & Maternity Centre,25.305302,82.978926,Raja Sir Motichand Road,,Varanasi
hospital,Parma Hospital,25.314154,82.958277,NH731B,,Varanasi
hospital,Sarkari Hospital,25.311547,82.977666,SIgra Mahmourganj Road,,Varanasi
hospital,Shiva Hospital,25.3581659,82.9928698,NH28,,Varanasi
hospital,Prateek Hospital,25.3528259,82.9972908,Daulatpur Road,,Varanasi
hospital,Ford Hospital,25.2744193,83.010027,Ramnagar Road,,Varanasi
hospital,Om Sai Hospital,25.2637524,82.9635564,BLW Road,Bhullanpur,Varanasi
hospital,Yash Hospital,25.3491391,82.9918442,Panch Koshi Road,,Varanasi
hospital,City Hospital,25.3104104,82.9853827,SIgra Mahmourganj Road,,Varanasi
hospital,Opus Hospital,25.3502471,82.9781808,Kautilya Kon Road,,Varanasi
hospital,Kasih Hospital,25.3088398,82.938513,NH731B,,Varanasi
hospital,Akanksha Hospital,25.3526203,82.9774508,Panch Koshi Road,,Varanasi
hospital,Amit Gupta Hospital,25.3087773,82.9843883,SIgra Mahmourganj Road,,Varanasi
hospital,Bramharshi Hospital,25.2784619,82.9474918,walking,,Varanasi
hospital,Banaras Medicity Heart & Super Speciality Hospital,25.3080296,82.986806,SIgra Mahmourganj Road,,Varanasi
hospital,Chandra Mohan Hospital,25.3505789,82.9775258,Kautilya Kon Road,,Varanasi
hospital,"Apex Hospital, Varanasi",25.3257252,82.9845891,Station Road,Cantonment,Varanasi
hospital,Shruti Clinic - Dr.G.S. Singh,25.3502427,82.9905536,Panch Koshi Road,,Varanasi
hospital,Laxmi Memorial Children Hospital,25.3432895,82.9883359,Makbul Alan Road,Cantonment,Varanasi
hospital,Hajra Hospital,25.3253079,83.009261,St. Kabir Road,,Varanasi
hospital,Manish Hospital,25.2669629,82.9669399,SH74,,Varanasi
hospital,Heritage Hospital,25.3130492,83.0041467,Raja Sir Motichand Road,,Varanasi
hospital,Navjeevan Hospital,25.3492833,83.0031583,Panch Koshi Road,Pilokothi,Varanasi
hospital,Savitri Hospital,25.5281738,81.8539012,NH30,Shantipuram,Prayagraj
hospital,Saraswati Hospital,25.437135,81.8495489,Zero Road,Chowk,Prayagraj
hospital,Dua Eye Hospital,25.4617973,81.8343315,Sardar Patel Marg,Civil Lines,Prayagraj
hospital,Narayan Hospital,25.240754,81.9511813,NH135C,,Prayagraj
hospital,Harsh Hospital,25.446226,81.8513037,Flyover,George Town,Prayagraj
hospital,Divyaroshni Healthcare Hospital,25.4538532,81.8287271,Lal Bahadur Shastri Marg,Civil Lines,Prayagraj
hospital,Srm Hospital,25.3928078,81.8415411,NH30,,Prayagraj
hospital,Balaji Hospital,25.4522464,81.8754118,krishna kunj road,Allahpur,Prayagraj
hospital,Global Eye Institute Of Optometry,25.4149498,81.8622496,Ganjia Road,Ganjia,Prayagraj
hospital,Saujanya Hospital,25.4380966,81.944851,NH319D,,Prayagraj
hospital,Day and Night Hospital,25.3883985,81.8655549,Mirzapur Road,ADA Colony,Prayagraj
hospital,Nitin Hospital,25.4243952,81.9166825,NH19,,Prayagraj
hospital,Lav Asha Homeopathic Hospital,25.3870321,81.8760138,Mirzapur Road,ADA Colony,Prayagraj
hospital,Sehar Hospital,25.4201104,81.8203849,Noorullah Road,Roshan Bagh,Prayagraj
hospital,Gama Hospital,25.4181117,82.0168496,NH19,,Prayagraj
hospital,Abhishek Hospital,25.4382939,81.9445669,NH319D,,Prayagraj
hospital,Sanchita Hospital,25.3916212,81.9855914,NH19,,Prayagraj
hospital,Geeta Hospital,25.4508612,81.863376,Jawaharlal Nehru Road,George Town,Prayagraj
hospital,Priyanshu Hospital,25.5236604,81.8635059,NH30,Shantipuram,Prayagraj
