Amenity Type,Name,Latitude,Longitude
bar,Fire & Ice,28.5909170,77.0580608
bar,Juice,28.6998789,77.2265694
bar,Milk,28.7000437,77.2271676
bar,Bar and restaurant,28.4541057,77.0512257
bar,Hops 'N' Brew,28.4682424,77.0628965
bar,Zura,28.4683522,77.0634735
bar,Yo!China,28.4683679,77.0634930
bar,Tripti Bar,28.5486023,77.1278858
bar,Epid,28.5543725,77.1945330
bar,mohini bar,28.6332767,77.2238762
bar,sam ,28.6825094,77.2631292
bar,Blue Frog,28.5271355,77.1857585
bar,Mars,28.6341141,77.3702984
bar,barrique,28.4966352,77.0930125
bar,RPM,28.5575936,77.1641580
bar,The Gem Bar,28.6415015,77.2160786
bar,Aquarium,28.5323633,77.2428166
bar,Fusion Bar,28.5333165,77.2429761
bar,Uber Lounge,28.5335172,77.2433965
bar,The Beer Cafe,28.5344841,77.2434299
bar,Camino,28.5340830,77.2427288
bar,Laiq,29.1497254,77.6039572
bar,OMG Bar & Kitchen,28.6314049,77.2204463
bar,Unknown,28.6189767,77.3701120
bar,My Love,28.6384556,77.2103969
bar,Sam's bar,28.6411301,77.2126830
bar,The Beer Cafe - Biggie,28.6339043,77.2208954
bar,The Yard,28.5563371,77.2062561
bar,Route 04,28.5998657,77.2261108
bar,Beer Cafe,28.6307208,77.2210523
bar,The Piano Man,28.5594950,77.1968574
bar,Perch wine & coffee bar,28.5999612,77.2262647
bar,My Bar,28.6306047,77.2198405
bar,Tafree,28.6314083,77.2205840
bar,Tamasha,28.6296803,77.2220055
bar,Unknown,28.4797945,77.0814035
bar,Elation,28.5494669,77.2365580
bar,Clock tower,28.4479803,77.1004156
bar,Summer House Cafe,28.5522587,77.2037676
bar,#nofilter,28.5467182,77.1965097
bar,Gravity Space Bar,28.4691758,77.0636778
bar,Elma'ls Bar & lounge,28.5844433,77.2266538
bar,Toxic,28.5273531,77.2191714
biergarten,English Wine and Beer Shop,28.9217362,77.1063530
cafe,Cafe Coffee Day,28.5334920,77.1518947
cafe,Unknown,28.5392027,77.1944440
cafe,Cafe Coffee Day,29.0609179,77.0642702
cafe,Unknown,28.4257351,77.1460473
cafe,Bon Temps Cafe,28.6428339,77.1865760
cafe,Internet,28.6410051,77.2125387
cafe,Nescafe,28.7496454,77.1167453
cafe,CCD,28.4675603,77.0814521
cafe,Internet,28.7034846,77.2284033
cafe,Nescafe,28.3675268,77.3165803
cafe,Cafe Coffee Day,28.4600672,77.0518464
cafe,Sagar Ratna,28.4743748,77.4814775
cafe,Red Chillies,28.4742994,77.4814775
cafe,Coffee Day Express,28.4735921,77.4841489
cafe,Nescafe,28.4730922,77.4832263
cafe,Cafe Coffee Day,28.5557074,77.2185983
cafe,Unknown,28.6172236,76.9835895
cafe,Unknown,28.6174472,76.9842681
cafe,Unknown,28.6175179,76.9841071
cafe,Unknown,28.6167833,76.9839033
cafe,Unknown,28.5671407,77.2449966
cafe,Madan Café,28.6407272,77.2111472
cafe,Cheela Cafe,28.5391092,77.1322417
cafe,Starbucks,28.6321974,77.2177075
cafe,Cafe Turtle,28.6002007,77.2273465
cafe,Starbucks,28.5681853,77.2192919
cafe,Cafe Diva,28.5566315,77.2332790
cafe,Starbucks,28.5496836,77.2363971
cafe,Cafe Coffee Day,28.5234052,77.2076313
cafe,Unknown,28.4972434,77.0937388
cafe,Unknown,28.4964348,77.0933900
cafe,Madras Coffee House,28.6318506,77.2163093
cafe,Cafe Coffee Day,28.5278854,77.2502591
cafe,Wagh Bakri Tea Lounge,28.5336384,77.2442419
cafe,Starbucks,28.5341212,77.2428302
cafe,Costa,28.5335834,77.2433039
cafe,Cafe Coffee Day,28.5400024,77.2343195
cafe,Cafe Coffee Day,28.5332416,77.2438243
cafe,Stri Shakti Canteen,28.6626659,77.2339069
cafe,"Shiru Cafe, IIT Delhi",28.5447888,77.1911891
cafe,Hunger House,28.6406068,77.1048726
cafe,Cafe Coffee Day,28.1255589,76.6374349
cafe,Amour Bistro,28.6016349,77.1859966
cafe,Sadick,29.1493074,77.6039499
cafe,Roots,28.4694883,77.0683104
cafe,Miranda's Nescafe,28.6933730,77.2107525
cafe,"subway, lavazza",28.5006053,77.1857471
cafe,Cafe Coffee Day,28.5116773,77.0419219
cafe,The Brown Box,28.5412792,77.2156818
cafe,Starbucks,28.6302915,77.2204826
cafe,Festa Cafe ,28.6409134,77.2104527
cafe,Shakti Bakers,28.9612013,77.7316056
cafe,Costa,28.5565239,77.2022190
cafe,kitchen cafe roof top,28.6409875,77.2128901
cafe,Café office office,28.6269741,77.2202933
cafe,Keventers,28.6289565,77.0767263
cafe,PAR Tech. Cyber Cafe,28.6811819,77.2610507
cafe,Barista,28.5463739,77.1970369
cafe,Smoothie factory,28.5464523,77.1965666
cafe,Cafe Coffee Day,28.5405268,77.2118362
cafe,Shake square,28.7009228,77.1359545
cafe,Out Of The Box (OTB),28.5997702,77.2261911
cafe,caféccino,28.5545719,77.0858145
cafe,Costa,28.5561016,77.0844719
cafe,Rose Cafe,28.5177312,77.1981227
cafe,Devan's at Lodhi,28.5798966,77.2220134
cafe,Everest Bakery Cafe,28.6417215,77.2147806
cafe,Unknown,29.1565745,77.9986351
cafe,Blue Tokai Coffee Roasters,28.5172818,77.2000632
cafe,HCL cafeteria,28.5362862,77.3432062
cafe,Chaayos,28.6314625,77.2206262
cafe,Big Fat Sandwich,28.5529784,77.2077666
cafe,Brownie Cafe,28.6454790,77.2163699
cafe,Cafeteria,28.9257035,77.0552434
cafe,Cafeteria,28.9254405,77.0552434
cafe,Toffe bar,28.5526526,77.2556362
cafe,How You Brewing?,28.5597790,77.2433169
cafe,Cafe Coffee Day,28.5596993,77.2429986
cafe,Cafe City Lights,28.5595408,77.2423721
cafe,Concrete Cafe & Lounge,28.5596341,77.2427757
cafe,Cafe Coffe Day,28.5576249,77.2453629
cafe,Modern Bazaar,28.5960692,77.0411256
cafe,angels in my kitchen,28.5329797,77.2434993
cafe,Kunzum,28.5535520,77.1943526
cafe,Playing Cup Cafe,28.6068044,77.2908063
cafe,Cafe Coffee Day,28.5638612,77.2341609
cafe,Satguru’s tea stall,28.6504719,77.2303091
cafe,Café Coffee Day,28.6069750,77.2905691
cafe,Honey n dough,28.5464901,77.1970726
cafe,Crackpot Cafe,28.5557616,77.2418147
cafe,SOS Cafe,28.5559586,77.1753340
cafe,Onkar Cafe,28.7390615,77.1353427
cafe,AMA Cafe,28.7026406,77.2284294
cafe,Unknown,28.6382330,77.2120277
cafe,Soho,28.5174202,77.1979526
cafe,Cafe Coffee Day,28.5849603,77.2266279
cafe,the gol chakar,28.5421410,77.2529220
cafe,Cafe Coffee Day,28.5723640,77.3887355
cafe,Cafe Turtle,28.5563407,77.2330048
cafe,Unknown,28.4676414,77.0816279
cafe,Unknown,28.4676069,77.0816003
cafe,Unknown,28.4676141,77.0824177
cafe,Happy cafe,28.6686580,77.3297410
cafe,Nitu Juice Center,28.6696070,77.3313380
cafe,Keventer's Milkshake,28.6334848,77.2181289
cafe,Cafe Einstein,28.5479351,77.2507706
cafe,Cafe Coffee Day,28.5376565,77.2133209
cafe,Cafe Coffee Day,28.5383536,77.1983139
cafe,JugMug Thela,28.5173118,77.1999817
cafe,Café Hameen Asto,28.5177997,77.1985596
cafe,Pho King Awesome,28.5173258,77.2002360
cafe,Cafe Lota,28.6131498,77.2426321
cafe,Happy Dough,28.5110406,77.2025519
cafe,Cafe Coffee Day,28.5331643,77.2062525
cafe,The Walled City,28.6491519,77.2327480
cafe,Chaayos,28.6315876,77.2222789
cafe,Hwealth Cafe,28.5744593,77.2291993
cafe,The chai kafe,28.6343655,77.2179596
cafe,Cafe Coffee Day,28.6446700,77.2402214
cafe,Annapurna Cafe,28.6304901,77.3712595
cafe,Café Coffee Day,29.0482171,77.0665242
cafe,Turquoise Cottage,28.5557387,77.2059000
cafe,Cafe Coffee Day,28.6339716,77.2180188
cafe,Ssongchee - Korea Bings Cafe,28.5174361,77.1984494
cafe,Cafe Coffee Day,28.6333474,77.0904058
cafe,Cafe Coffee Day,28.6329087,77.0868550
cafe,Henry Cafe,28.5153468,77.2056028
cafe,the food factory,28.5341421,77.2169982
cafe,wake up cafe,28.5355862,77.2166825
cafe,Coffee Cafe 9,28.5316504,77.2186674
cafe,chaudhry tea  stall,28.5346351,77.2207730
cafe,pandji tea stall ,28.5332807,77.2218792
cafe,Jain coffee house,28.6506060,77.2295833
cafe,Unknown,28.5691441,77.2454098
cafe,Barista,28.5014001,77.1671574
cafe,The Junkyard Cafe,28.6303838,77.2207212
cafe,Blue Tokai Cafe,28.5529283,77.2078816
cafe,Qd's,28.6361281,77.2855466
cafe,Laidback Café,28.5275009,77.2172590
cafe,Café Underpass Courtyard,28.5784821,77.2383126
cafe,Sardar-Ji-Baksh Coffee and Company,28.5407564,77.2121254
cafe,Woodhouse Café,28.5362156,77.2095278
cafe,Foresta Bistro & Cafe,28.5179998,77.1992482
cafe,Cafe Coffee Day,28.5626504,77.2446068
cafe,The Panchshila Rendezvous,28.5394874,77.2133656
cafe,Down Town Café & Kitchen,28.5088733,77.2007595
cafe,Wagh Bakri Tea Lounge,28.6343528,77.2220221
cafe,Mittal Teas,28.6299698,77.2229648
cafe,Cafe Coffee Day,28.6330613,77.2198505
cafe,Yamuna Café,28.7019790,77.2288343
cafe,Koko Café and Restaurant,28.7005268,77.2276866
cafe,Unknown,28.6260819,77.2327012
cafe,Unknown,28.6252689,77.2326390
cafe,Cafe Coffee Day,28.6383221,77.1805949
cafe,Cafe Coffee Day,28.6493059,77.1228256
cafe,Chaayos,28.5513268,77.2518752
cafe,United Coffee House,28.5514607,77.2515370
cafe,Blue Tokai,28.6309899,77.2218384
cafe,Green Dot Theory,28.4445699,77.1882570
cafe,Chonas,28.5277694,77.1895212
cafe,Sardarji Bakhsh Coffee and Company,28.6931287,77.2047996
cafe,Taste of Nation,28.5178715,77.1992205
cafe,Café Amsterdam,28.5399961,77.2581592
cafe,Cafe Coffee Day,28.5406268,77.2567821
cafe,NYC Queens,28.5400859,77.2580101
cafe,Happy Dough,28.5398995,77.2582377
cafe,Starbucks,28.4061488,77.0451428
cafe,Cafe Coffee Day,28.6343112,77.2194624
cafe,Cafe Coffee Day,28.6336036,77.2178165
cafe,Leaf Beat Bistro,28.5072646,77.2000870
cafe,OTB Café,28.6343601,77.2182711
cafe,Unknown,28.6520332,77.2208820
cafe,Unknown,28.5158686,77.1972412
cafe,café coffee day,28.5265942,77.1875219
cafe,Open Hand Cafe (top top ;),28.6405754,77.2117485
cafe,Mapel Tree Cafe,28.5100632,77.2019615
cafe,The Construction Company,28.5877780,77.1675315
cafe,Unknown,28.6468174,77.1597175
cafe,Cafe Coffee Day,28.6514487,77.1591527
cafe,The Chocolate Room,28.5336105,77.2062709
cafe,Cultured,28.5614184,77.1939656
cafe,Starbucks,28.5513314,77.2521109
cafe,Milkshake and Co.,28.5525620,77.2420400
cafe,DePaul's,28.6288925,77.2186728
cafe,Barista,28.5570095,77.1641633
cafe,Costa,28.5575828,77.1640909
cafe,Blue Tokai Coffee Roasters,28.5578559,77.1644557
cafe,Vaw Cafe,28.5199328,77.2018409
cafe,Cafe Coffee Day,28.6928509,77.1528561
cafe,Nowhere Brewpub and cafe,28.4682859,77.0836684
cafe,Dighent cafe,28.4682936,77.0830397
cafe,Starbucks,28.4675277,77.0822417
cafe,Chai Thela,28.5070388,77.1751014
cafe,WHSmith,28.5069730,77.1752152
cafe,Unknown,28.5895394,77.2195741
cafe,Kaffa Cerrado The Roastery,28.5390026,77.2702145
cafe,Quick Brown Fox Coffee Roasters,28.5033421,77.1853988
cafe,Carnatic Cafe,28.5336703,77.2423029
cafe,Roasters Coffee Co. Book Cafe,28.5270682,77.2166725
cafe,Greenr Cafe,28.5037101,77.1854284
cafe,Starbucks,28.4508713,77.0976243
cafe,#ashery,28.6342664,77.2180918
cafe,L'Opéra,28.6090339,77.2296678
cafe,Madison and Pike,28.4144192,77.0654842
cafe,Coffee Spot,28.5671729,77.2131530
cafe,Khopcha Cafe,28.5196007,77.2059641
cafe,Mustos Cafe,28.5611083,77.3653145
cafe,cafe,28.7136765,77.2164902
cafe,Tea Point,28.4851387,77.1938132
cafe,Nor sure,28.5734854,77.1539497
cafe,Cafe Coffee Day,28.5551699,77.2424102
cafe,Unknown,28.6753600,77.5031220
cafe,Pizza Grill,28.6774894,77.5008817
cafe,Unknown,28.5675349,77.1581036
cafe,Unknown,28.7526331,77.4973739
cafe,Travel Yoga Cafe,28.6357531,77.2205669
cafe,Unknown,28.5675720,77.1583927
cafe,cafebluearch,28.8840779,76.6166980
cafe,Amul,28.6113943,77.0363114
cafe,Manish Cafe,28.6296999,77.1797945
cafe,"B,M,B misthan bhandaar",27.9694892,77.4922792
cafe,Starbucks,28.6008630,77.2270634
cafe,Cafe Coffee Day,28.6267988,77.2197099
cafe,Fit Food 27,28.5743011,77.3282234
cafe,Blue Tokai Coffee Roasters,28.6301326,77.2199077
cafe,Cafe Coffee Day,28.4777464,77.0461429
cafe,Chaayos,28.6426064,77.2960959
cafe,Starbucks,28.5506660,77.1217458
cafe,Cafe Hut-K (KP Food),28.3398598,76.9941220
cafe,The Walkers,28.3399675,76.9941084
cafe,Rathi Cafe Pandala,28.3395205,76.9941761
cafe,Desi Thaat,28.3396097,76.9940994
cafe,Happy Pie Cafe,28.3399886,76.9941737
cafe,Trip Mechanic Cafe,28.3424122,76.9958703
cafe,Throttle Shrottle Cafe,28.3425704,76.9958656
cafe,Cravity café,28.5531797,77.2081125
cafe,Cafe Coffee Day,28.6339819,77.2185238
cafe,Unknown,29.2604205,77.7176910
cafe,Unknown,28.6341954,77.3408814
cafe,Unknown,28.6440450,77.2093712
cafe,Aggarwal Sweets,28.5460399,77.3065386
cafe,Chai Cafe,28.5566241,77.2929293
cafe,cafe house,28.5519931,77.2988937
cafe,Guftagu Cafe,28.4852731,77.0948027
cafe,Cafe Coffee Day,28.6180076,77.2795240
cafe,Starbucks,28.5284196,77.2191512
cafe,Café Turtle,28.5903723,77.2524954
cafe,Cafe Masti,28.7187719,77.0655675
cafe,Chaayos Cafe,28.3910366,77.0302333
cafe,Bloom Café & Cakery,28.5998699,77.2263436
cafe,Bean Sahab Cafe,28.5177362,77.1999325
cafe,Cafe-Tesu,28.5282510,77.2165615
cafe,Cafe Delhi Heights,28.6002371,77.2274371
cafe,Oval Bean Café,28.5543007,77.1945825
cafe,Costa,28.4197953,77.0382615
cafe,Jojoo Coffee Club,28.7277654,77.7615169
cafe,Suchali's,28.5572099,77.1640827
cafe,Costa,28.5518221,77.1225864
cafe,Cafe High Octane,28.4973861,77.3942487
cafe,Alma cafe & bakery,28.5007264,77.4093833
cafe,Alma cafe & bakery,28.5332657,77.3767040
cafe,Chaayos,28.5585835,77.1640835
cafe,Oval Bean Cafe,28.6331479,77.2196843
cafe,BAR OF BURGER,28.7158030,77.1147537
cafe,Love Green Dot Café,28.5364419,77.2110697
cafe,Café Coffee Day,28.0177606,77.3353879
cafe,The Coffee Bean & Tea Leaf,28.5549147,77.0827495
cafe,Lakshya sweets,29.3165622,76.3350104
cafe,Aggarwal sweets,29.3167672,76.3350132
cafe,chai sutta bar,29.3172772,76.3350811
cafe,Cafe t Area,28.3862489,77.3539225
cafe,HOT BLACK CAFE,28.3864805,77.3526367
cafe,Momo Magic Cafe,28.3862678,77.3537401
cafe,Dark Brown World Street,28.3866117,77.3531769
cafe,laidback cafe,28.5231651,77.2132041
cafe,laidback cafe,28.5275543,77.2172592
cafe,cafe 1,27.8670099,78.0897640
cafe,cafeyeria,27.8688425,78.0900397
cafe,Cafe Sixty 9,28.3944744,77.0318037
cafe,D’Cafe,28.3947196,77.0316524
cafe,Unknown,27.7727461,77.9888498
cafe,Barista Dinner,28.3826187,77.0525270
cafe,Chaayos,28.3836064,77.0524458
cafe,Nature's Peace,28.5518205,77.3186856
cafe,Blue Tokai,28.5997174,77.2261777
cafe,The Big Chill,28.5997717,77.2261395
cafe,Unknown,28.7335151,77.1657206
cafe,Unknown,28.7335970,77.1657487
cafe,The Highbrooks Cafe,28.5509244,77.2342399
cafe,Unknown,28.6306890,77.2209032
cafe,Chai Thela,28.6370542,77.2863366
cafe,Chai Chulha,28.6310806,77.2781194
cafe,Cafe Coffee Day,28.6338840,77.2184716
cafe,Zahra Restaurant,28.5623329,77.2885470
cafe,Tibetan food stop,28.5485756,77.1672137
cafe,godavari cafe,28.5450618,77.1665492
cafe,sabarmati dhaba,28.5451565,77.1638562
cafe,24×7 cafe,28.5451985,77.1634213
cafe,mugal darbar,28.5428694,77.1600819
cafe,paratha wala,28.5335432,77.1692029
cafe,Café Crew Brew,28.6995996,77.2080300
cafe,Unknown,28.9673479,77.7296520
cafe,Eat Out,28.9878371,77.7270528
cafe,Chai Sang Tafri,28.9683913,77.7368508
cafe,Blue Tokai,28.5614291,77.2688987
cafe,Third Wave,28.5422250,77.2538040
cafe,Nothing Before Coffee,28.5422268,77.2537368
cafe,Chaayos,28.5575108,77.0833809
cafe,Unknown,28.7362473,77.1127243
cafe,Starbucks,28.6452103,77.1954815
cafe,Unknown,28.9812873,77.7372076
cafe,Jugmug,28.6534474,77.2399354
cafe,Dr's Cafe,28.7368357,77.1111930
cafe,Unknown,28.7375709,77.1101997
cafe,Barista,28.6329970,77.2190193
cafe,Lettuce Berry Cafe,28.9989442,77.7006049
cafe,Pizza Workshop,28.6796719,77.3181678
cafe,Shree Shyam Confectionery,28.7363285,77.1119272
cafe,Unknown,28.9841482,77.7067293
cafe,Unknown,28.6109435,77.2194122
cafe,Yadav Tea Stall,28.9925376,77.7279067
cafe,"Blue Tokai (coffee , pastries, wifi)",28.6310504,77.2219404
cafe,Kaffee Stories,28.4310172,77.0620616
cafe,Café Brownie (coffee),28.6458170,77.2154412
cafe,Chai 24/7,28.6347571,77.2184665
cafe,Unknown,28.6307063,77.2156133
cafe,Café Bamboo Oasis,28.5941514,77.2609769
cafe,Costa,28.4397212,77.0402096
cafe,Super Chai,28.5499550,77.2338047
cafe,Delicious Juice,28.9639242,77.7286980
cafe,Unknown,28.9765469,77.7325752
cafe,sky cafe,28.8266559,77.5663950
cafe,DUNKIN,28.6879166,77.2921832
cafe,Cheap food places,28.5650318,77.1227990
cafe,Chai Suta Bar,28.8043913,76.1343089
cafe,Unknown,28.9790704,77.7316070
cafe,The Untold Cafe,28.8049445,76.1327671
cafe,NEW CAFE KING,28.6891470,77.3010766
cafe,Crew Brew,28.3983800,77.2990760
cafe,nescafe,28.5016903,77.2862171
cafe,Unknown,28.5488614,77.2507114
cafe,Unknown,28.5486152,77.2523289
cafe,Unknown,28.5499616,77.2505784
cafe,Unknown,28.5490252,77.2512096
cafe,Chai Point,28.7361130,77.2961789
cafe,caffine chronicles,28.4999846,77.2916442
cafe,cafe,28.6037944,77.0498332
cafe,Unknown,28.5490409,77.2518356
cafe,Unknown,28.5492453,77.2515707
cafe,Unknown,28.5984992,77.2460848
cafe,Unknown,28.6934131,77.1737673
cafe,Rajni Tea Stall,28.9686381,77.7356534
cafe,Coffee Break,28.5908601,77.2563801
cafe,Global Tea Cafe,29.0070517,77.7445137
cafe,Starbucks,29.0076368,77.7459496
cafe,Eden,29.0077280,77.7461199
cafe,Machandra Snacks,28.6867006,77.2085817
cafe,Chai Cube,29.0059170,77.7438250
cafe,London Brew Coffee Shop,28.9988986,77.7005125
cafe,Xero Degrees,28.6328859,77.2227714
cafe,Starbucks,28.6789667,77.2079898
cafe,benta cafe,28.6787588,77.2079536
cafe,Barista,28.6482157,77.2001362
cafe,Cafe Coffee Day,28.6798041,77.2082169
cafe,Love Bite Cafe,28.5886880,77.1691745
cafe,Igniter Cafe,28.5884140,77.1686436
cafe,Café 69,28.5886031,77.1689683
cafe,Ricos,28.5885827,77.1690539
cafe,Awarapan Cafe,28.5884966,77.1688106
cafe,Pandit Ji Partha Hut,28.5881876,77.1682611
cafe,Immortal Gaming Cafe,28.5879768,77.1688142
cafe,Cafe Mitro,28.5878444,77.1675983
cafe,Bottle House,28.5878311,77.1675464
cafe,The Bowton House Café,28.5877303,77.1672874
cafe,The Big House Café,28.5880640,77.1679012
cafe,Rustic Cafe,28.5880537,77.1679015
cafe,Pandit Ji Tea Stall,28.5876277,77.1686816
cafe,Mum Café and Bakery,28.5877898,77.1684033
cafe,Nerds Of Comedy,28.5880515,77.1682334
cafe,Sista’s,28.5880081,77.1677761
cafe,Pipeline pizzeria,28.5879971,77.1677583
cafe,The Chai Latte,28.5882442,77.1683690
cafe,Goyal Tea Junction,28.5875478,77.1686825
cafe,Cafe Unbound,28.5875721,77.1685498
cafe,Tirupati Bhawan,28.6333646,77.2226483
cafe,Alfa,28.5875537,77.1686987
cafe,Free of Gluten,28.5870102,77.1704721
cafe,Ricos,28.6789186,77.2079772
cafe,Gitesh Dedha House,28.7397080,77.2187078
cafe,Sabharwal Tea Stall,28.5931893,77.1645815
cafe,Nescafe,28.5446409,77.1916272
cafe,Parichai,28.6308108,77.2774683
cafe,Third Wave Coffee,28.4509594,77.0815414
cafe,Chaayos,28.4529086,77.0823310
cafe,AMUL PARLOUR,28.5952984,77.0184997
cafe,Del Bite,28.6440611,77.2014836
cafe,Astro Bakers,28.5372482,77.2487079
cafe,Cosmoc Cafe,28.6434883,77.2982775
cafe,Snocker Cafe,28.6435024,77.2982982
cafe,Dada & Bodi Tandoori Tea Stall,28.5397499,77.2487881
cafe,Starbucks,28.7020151,77.1171282
cafe,ATAL SEVA KENDRA NAMUNDA,29.2410642,76.9445588
cafe,Roslyn Coffee,28.7147527,77.1162173
cafe,Nescafe,28.4511165,77.2867045
cafe,Unknown,28.6367371,77.2858911
cafe,Yakuza Cafe,28.5536162,77.1943009
cafe,The Tea Room Cakery,28.5549056,77.1951137
cafe,Cafe Pink,28.5548412,77.1941455
cafe,Cafe Pink,28.5548800,77.1944159
cafe,Sukhchai,28.5591964,77.1969236
cafe,Shellbeacon Cafe,28.5545330,77.1947655
cafe,Barista,28.5958144,77.0366009
cafe,The Atrium,28.5962640,77.0362265
cafe,Flavours - All Time Snacks,28.4606190,77.0791424
cafe,Ninis Snacks,28.4605780,77.0791392
cafe,Chaiorama,28.6329547,77.2821179
cafe,Higher Ground,28.6949217,77.2144347
cafe,cvsv,28.6610786,77.2273116
cafe,Tea Crow Metry Cafe,28.6929457,77.2088688
cafe,The Garden Restaurant,28.6188178,77.1785030
cafe,Cafe Buddy's Espresso,28.3921369,77.0593102
cafe,QuQu,28.3922180,77.0591745
cafe,The waffle CO.,28.3923074,77.0589606
cafe,Chaayos,28.3918971,77.0591729
cafe,Costa,28.3918675,77.0591350
cafe,Blue Tokai Coffee Roasters,28.3920477,77.0593057
cafe,Home-Style Cafe,28.8959696,76.6011471
cafe,JP Tea Stall,28.6851224,77.2089432
cafe,Third Wave Coffee,28.5573403,77.2403969
fast_food,Darbar,28.4528666,77.0406221
fast_food,Unknown,28.5099306,77.1682190
fast_food,McDonald's,28.5574267,77.1635699
fast_food,Bikanervala,28.4689302,77.0638804
fast_food,Unknown,28.4689088,77.0669775
fast_food,Domino's,28.4113681,77.0432317
fast_food,Nirula's,28.4106834,77.0431666
fast_food,Domino's,28.6457998,77.1722681
fast_food,Om Sweets,28.4529218,77.0502790
fast_food,Unknown,28.5190366,77.1613391
fast_food,Food Court,28.4939209,77.0932012
fast_food,McDonald's,28.5500151,77.2511173
fast_food,Subway,28.5500689,77.2510928
fast_food,Ashok Namkeen & Sweets,28.5362363,77.2118694
fast_food,South Indian Fast Food,28.5349439,77.2127469
fast_food,Shree Ram Chat,28.5355117,77.2108356
fast_food,Jai Baba Ki,28.5323164,77.2153932
fast_food,Om Sri Sai Snacks,28.5324543,77.2174638
fast_food,Unknown,28.6340123,77.3695512
fast_food,McDonald's,28.3751984,76.9543200
fast_food,McDonald's,28.5234495,77.2073909
fast_food,Unknown,28.4174320,77.0509840
fast_food,Rupa Ice Cream Parlour,28.6602853,77.2813005
fast_food,Omelet,28.6990814,77.2258264
fast_food,Fast Food,28.4534596,77.0509870
fast_food,Fast food,28.4532662,77.0510031
fast_food,Art Of Spices,28.6438105,77.1910019
fast_food,Aggarwal Sweets,28.6388435,77.1838163
fast_food,McDonald's,28.6424922,77.1762685
fast_food,Unknown,28.6125565,76.9860889
fast_food,Unknown,28.6128369,76.9848340
fast_food,Unknown,28.6125991,76.9851961
fast_food,Unknown,28.5657391,77.2466934
fast_food,Unknown,28.5669015,77.2467943
fast_food,Unknown,28.5704480,76.9072107
fast_food,McDonald's,28.5799800,77.3153064
fast_food,Domino's,28.4682239,77.0630429
fast_food,McDonald's,28.4682004,77.0631555
fast_food,Subway,28.5968674,77.0506536
fast_food,KFC,28.5571888,77.1643429
fast_food,Domino's,28.5578353,77.1643785
fast_food,McDonald's,28.6411341,77.3173047
fast_food,McDonald's,28.6429561,77.3407311
fast_food,McDonald's,28.6445191,77.3348946
fast_food,McDonald's,28.6562865,77.2341095
fast_food,Haldiram's,28.6563937,77.2316218
fast_food,Nizam's Kathi Kabab,28.6350182,77.2194180
fast_food,Parathe Wali Gali,28.6561924,77.2306625
fast_food,KFC,28.6331146,77.2179776
fast_food,Comesum,28.5883459,77.2536911
fast_food,Domino's,28.6712618,77.1342091
fast_food,McDonald's,28.6704182,77.1331706
fast_food,McDonald's,28.8871407,76.6118667
fast_food,Subway,28.6706413,77.1340058
fast_food,Gupta Chhole Bhature Corner,28.6700830,77.1331034
fast_food,Natraj Dahibhalla,28.6564570,77.2300677
fast_food,KFC,28.4693530,77.0633642
fast_food,McDonald's,28.4961474,77.0888518
fast_food,Aggarwal Sweets,28.5311271,77.2185963
fast_food,Domino's,28.5980802,77.2948680
fast_food,Shree Ganesh Corner,28.6297824,77.2771944
fast_food,Gole Hatti,28.6574010,77.2231422
fast_food,Bikanervala,28.6780605,77.3592635
fast_food,Subway,28.6405917,77.2108939
fast_food,Haldiram's,28.6396915,77.3782160
fast_food,Subway,28.5248112,77.2543763
fast_food,Domino's,28.5323854,77.2428373
fast_food,Subway,28.5324464,77.2429098
fast_food,Baskin Robbins,28.5397945,77.2403533
fast_food,Cafeteria,28.5435391,77.1911651
fast_food,AMUL,28.5448909,77.1915579
fast_food,Tea Halt,28.5493478,77.1850744
fast_food,Sassi,28.5503435,77.1838762
fast_food,Domino's,28.5438231,77.4094504
fast_food,Domino's,28.6301576,77.2197258
fast_food,The Embassy,28.6336816,77.2210924
fast_food,McDonald's,29.3442948,77.7158365
fast_food,McDonald's,28.5653952,77.3238765
fast_food,China Bowl,28.5340965,77.1521686
fast_food,Bikanere,28.5853563,77.1915395
fast_food,Mughlai chain of restaurants,28.5839783,77.1915598
fast_food,Unknown,28.5842818,77.1917428
fast_food,Unknown,28.5843924,77.1919664
fast_food,Jai Maha Kali,28.6467705,77.2129317
fast_food,McDonald's,28.6322738,77.2162739
fast_food,Dunkin',28.5559225,77.2020631
fast_food,Domino's,28.5565879,77.2022269
fast_food,Hunger Cure,28.4501324,77.2833462
fast_food,khandani pakode wala,28.5696026,77.1938516
fast_food,nirulas,28.5683377,77.1889265
fast_food,Domino's,28.5116526,77.0420538
fast_food,McDonald's,28.5052329,77.0380116
fast_food,Burger Express,28.7133403,77.2158236
fast_food,McDonald's,28.6302060,77.2200866
fast_food,McDonald's,28.9529042,77.7315811
fast_food,Lip n Sip,28.9610770,77.7324328
fast_food,McDonald's,28.6892728,77.1332391
fast_food,Raseela Petha Bhandar,28.9621631,77.7334412
fast_food,Deshwal,28.9623337,77.7333794
fast_food,Saravana Bhavan,28.6320509,77.2163058
fast_food,Unknown,28.6165099,77.2326851
fast_food,Welcome Point,28.5535801,77.1943270
fast_food,Unknown,28.6350525,77.3045938
fast_food,Unknown,28.4790787,77.5004442
fast_food,Unknown,28.4808504,77.4996850
fast_food,Unknown,28.4799945,77.4998804
fast_food,Unknown,28.4804144,77.5004045
fast_food,Unknown,28.4808085,77.4998106
fast_food,Jalebi Wala,28.6560137,77.2334875
fast_food,Food ChoPal,28.6840867,77.1273147
fast_food,Foodpanda,28.6883570,77.1218252
fast_food,Burger Singh,28.5464390,77.1967325
fast_food,Mr. Sub,28.5464219,77.1970561
fast_food,McDonald's,28.5679494,77.2412600
fast_food,Mc Bakerz,29.7019177,77.0142617
fast_food,Mc Bakerz,29.6865291,76.9905429
fast_food,KFC,28.6297305,77.2201372
fast_food,McDonald's,28.7165032,77.1137155
fast_food,McDonald's,28.4938990,77.0927785
fast_food,masala twist,28.5551179,77.0854404
fast_food,Ckrushh Juice Bar,28.5556357,77.0850162
fast_food,Domino's,28.9701590,77.7230668
fast_food,Jain Chawal Wale,28.6317854,77.2159495
fast_food,Subway,28.9257035,77.0552434
fast_food,Saravana Bhavan,28.6270891,77.2197178
fast_food,Masala Mix,28.5462512,77.1866450
fast_food,Haldiram's,28.6341200,77.2222423
fast_food,Saravana Bhavan,28.6321991,77.2163026
fast_food,Unknown,28.6402494,77.2943925
fast_food,Unknown,28.1087694,77.5744642
fast_food,Unknown,28.1190410,77.5746485
fast_food,Chache di Hatti,28.6823173,77.2060242
fast_food,Burger Singh,28.4337509,77.1052624
fast_food,Wat-a-Burger,28.4337192,77.1052415
fast_food,Subway,28.5702091,77.2375367
fast_food,Fresh Tuck,28.5637147,77.2340896
fast_food,Unknown,28.6602944,77.2288120
fast_food,Shree Balaji Chaat Bhandar,28.6563366,77.2318879
fast_food,Bhola Shake and Juice,28.5704314,77.3328714
fast_food,Unknown,28.5713921,77.3330828
fast_food,McDonald's,28.5761428,77.1950445
fast_food,Burger King,28.5764880,77.1949983
fast_food,Subway,28.5761271,77.1950032
fast_food,The Burger Club,28.5762197,77.1950079
fast_food,Unknown,29.4573623,76.9704748
fast_food,McDonald's,28.5723405,77.3886677
fast_food,Halal Meat Shop,28.6696700,77.3315300
fast_food,Tusli Juice And Shakes,28.6693610,77.3309570
fast_food,Roli Juice Corner,28.6606950,77.3237330
fast_food,Kolkata Kathi Rolls,28.6602390,77.3239840
fast_food,Av's Pizza,28.6643110,77.3236310
fast_food,Unknown,28.5568285,77.0851890
fast_food,Burger Singh,28.6342788,77.2176384
fast_food,Khan Chacha,28.6006978,77.2273002
fast_food,Haldiram's,28.5364378,77.2112932
fast_food,Go Foodie,28.5314875,77.2077454
fast_food,Burger King,28.6429706,77.2226296
fast_food,Haldiram's,28.5363479,77.2113662
fast_food,Morellos,28.5172505,77.2001485
fast_food,Lala's Tandoor,28.5154971,77.2054225
fast_food,Apna Punjab,28.5108297,77.2023835
fast_food,Bikaner Sweets,28.5273626,77.2060837
fast_food,Wah Ji Wah,28.5247847,77.2063237
fast_food,Burger Singh,28.5238706,77.2069128
fast_food,Lunch At Office,28.5101696,77.2020203
fast_food,Subway,28.6316182,77.2222311
fast_food,Shao-lin,28.5339484,77.2071175
fast_food,Wat-a-Burger,28.5350261,77.2081761
fast_food,Bottle Opener,28.5859501,77.2136701
fast_food,Stoned Pizzeria,28.5500656,77.2052778
fast_food,Subway,29.0483069,77.0664973
fast_food,Domino's,29.0482425,77.0665169
fast_food,Pure Veg Foods,28.6421748,77.2183515
fast_food,Bikaner Sweets,28.5263770,77.2567995
fast_food,Coffee Home,28.6310681,77.2147904
fast_food,Subway,28.6315538,77.2162363
fast_food,Fiza,28.5159360,77.2055735
fast_food,Unknown,28.5244380,77.2063699
fast_food,Cafe Buddy's,28.6469827,77.3160371
fast_food,Waffle Twist,28.5359527,77.2119078
fast_food,Domino's,28.5365996,77.2113895
fast_food,Subway,28.5341172,77.2092230
fast_food,Domino's,28.6333172,77.2226137
fast_food,Unknown,28.4127374,77.0555164
fast_food,Unknown,28.5835777,77.1727978
fast_food,Chick 'n' Salsa,28.5189751,77.2065429
fast_food,Unknown,28.6290515,77.2200995
fast_food,Carl's Jr.,28.5677328,77.3212612
fast_food,Carl's Jr.,28.4509093,77.0973003
fast_food,Carl's Jr.,28.6421175,77.1069200
fast_food,Carl's Jr.,28.5280801,77.2191272
fast_food,chole kulche ,28.5309415,77.2176182
fast_food,chacha chicken point,28.5309188,77.2162408
fast_food,"Fuchi: Chinese, Tibetan and Nepali food",28.5309083,77.2170892
fast_food,Goli Vada Pav,28.5354028,77.2168481
fast_food,aayanamay,28.5347718,77.2168878
fast_food,Yo China Table,28.5129074,77.2038453
fast_food,Depaul's,28.5626601,77.2448650
fast_food,Unknown,28.5624816,77.2448456
fast_food,Zaika Muradabadi,28.5622256,77.2449960
fast_food,Pasta Town,28.5622178,77.2449559
fast_food,Roll Express,28.5622125,77.2449290
fast_food,New Vishal Corner,28.5482926,77.2521255
fast_food,Roll Box,28.6440134,77.2009500
fast_food,Good Food Kitchen,28.6824274,77.0585147
fast_food,Alfonso,28.5145855,77.2050490
fast_food,Beliram Degchiwala,28.5688043,77.2473905
fast_food,Domino's,28.5670067,77.2468669
fast_food,Wat-a-Burger!,28.5665923,77.2466439
fast_food,Subway,28.5233237,77.2072733
fast_food,Southy,28.5236004,77.2071797
fast_food,Moktoo,28.5230693,77.2070313
fast_food,KFC,28.5234182,77.2075610
fast_food,Wow! Momo,28.5236116,77.2071093
fast_food,Domino's,28.5232600,77.2075482
fast_food,Lebanese Point,28.5236062,77.2071431
fast_food,Cafe 147,28.5103314,77.2021151
fast_food,Wok Me,28.5522710,77.2039951
fast_food,Royal's Cafe,28.5116353,77.2027037
fast_food,Hong Kong Express,28.5341200,77.2072859
fast_food,Dolma Aunty Momos,28.5691758,77.2405932
fast_food,Nirula's,28.6336220,77.2222396
fast_food,Ya Allah Chala De Hotel,28.6496555,77.2328370
fast_food,Wah Ji Wah,28.5095794,77.2016684
fast_food,Domino's,28.5700423,77.2410573
fast_food,Domino's,28.5614244,77.2688764
fast_food,Subway,28.5614968,77.2686683
fast_food,Domino's,28.5613870,77.2688014
fast_food,Garden Chef,28.5899247,77.2195873
fast_food,Food Track,28.5755451,77.2092905
fast_food,Streetfood,28.5376536,77.2130970
fast_food,Unknown,28.5616933,77.2684746
fast_food,Domino's,28.6451021,77.1696998
fast_food,Domino's,28.5692288,77.2207370
fast_food,Agarwal Sweets,28.5088050,77.2007334
fast_food,qureshi kabab,28.6305945,77.2202640
fast_food,Prabhu,28.5468576,77.1249166
fast_food,Jain Sweets,28.5469671,77.1248898
fast_food,Domino's,28.3783663,76.9035584
fast_food,Tea Tchai to take away,28.6407857,77.2131790
fast_food,Dilpasand Byriani Taufiq Byriani Wala,28.6471993,77.2359366
fast_food,Waffle Chowk,28.6387959,77.3654336
fast_food,Nilgiri Night Mess,28.5462252,77.1820651
fast_food,Zaika Muradabadi,28.5686807,77.2443637
fast_food,Burger Singh,28.6464253,77.1176773
fast_food,Domino's,28.6986825,77.2060131
fast_food,Chatori Gali,28.5179821,77.1987555
fast_food,Domino's,28.5403214,77.2581479
fast_food,Southy,28.5417754,77.2548705
fast_food,Wendy's,28.5406777,77.2566838
fast_food,McDonald's,28.5402032,77.2577272
fast_food,KFC,28.5420974,77.2534301
fast_food,Nirula's,28.5419253,77.2538259
fast_food,Burger Singh,28.5403427,77.2574272
fast_food,Amazing chole stand,28.6440465,77.2124248
fast_food,Subway,28.6698490,77.1026183
fast_food,Domino's,28.6918679,77.2915973
fast_food,"34, Chowringhee Lane",28.5438131,77.2509622
fast_food,Chicago Pizza,28.5708038,77.2399593
fast_food,Domino's,28.5689024,77.1888640
fast_food,Jatin's Cafe,28.6186978,77.0545912
fast_food,Domino's,28.6207795,77.2850272
fast_food,The Kathi's,28.5236136,77.2070765
fast_food,Pause,28.5407143,77.2118687
fast_food,Halka Fulka,28.6347974,77.2201885
fast_food,Oodles Noodles,28.5350111,77.2081563
fast_food,Rolls King,28.5350192,77.2081657
fast_food,Momo King,28.5341019,77.2073055
fast_food,McDonald's,28.5630146,77.2243588
fast_food,Old Delhi Kitchen,28.5438807,77.2511713
fast_food,Pizza 96,28.5201781,77.2032018
fast_food,Chaska Tandoori Snacks,28.5518792,77.2074369
fast_food,"34, Chowringhee Lane",28.6288935,77.2187659
fast_food,Azad Chicken Biryani Corner,28.5193991,77.2063908
fast_food,Domino's,28.5498888,77.2511493
fast_food,McDonald's,28.3671874,76.9443904
fast_food,Aggarwal Sweets and Snacks,28.5221102,77.1686236
fast_food,Priyanshi South Indian Fast Food Point,28.6320530,77.2794360
fast_food,Tip Top Tikka Corner,28.5098240,77.2017050
fast_food,The Pizza Pie,28.5100591,77.2015920
fast_food,Domino's,28.6317488,77.2789716
fast_food,Wake & Shake,28.5620676,77.1934490
fast_food,Mcdonald,28.6305923,77.2172927
fast_food,Roll and Roast,28.5400761,77.2486290
fast_food,Durai South Indian Cafe,28.5234158,77.2226606
fast_food,Lodhi Knights,28.5816234,77.2206837
fast_food,McDonald's,28.6923651,77.1526673
fast_food,Haldiram's,28.6929456,77.1528688
fast_food,Unknown,28.3955020,77.3238923
fast_food,Raju Fast Food Corner,28.5402415,77.2490221
fast_food,Concept Shawarma,28.5782580,77.2387357
fast_food,Wow! Momo,28.5070207,77.1751392
fast_food,Burger King,28.5069974,77.1751748
fast_food,KFC,28.4035723,76.9477406
fast_food,Subway,28.5587768,77.1708164
fast_food,Nirula's,28.5314140,77.1538432
fast_food,Super Hit Pizza,28.5845777,77.2264117
fast_food,Sona,28.5483497,77.2515155
fast_food,Wow! Momo,28.5336691,77.1519207
fast_food,The Kulchas!,28.5140025,77.2047827
fast_food,Lucknow Central,28.5402171,77.2488504
fast_food,Taco Bell,28.6302271,77.2202118
fast_food,Biryani Blues,28.5399164,77.2584976
fast_food,La Pino'z Pizza,28.5428844,77.2523787
fast_food,Unknown,28.5400323,77.2486915
fast_food,Gopal's Chop and Cutlet,28.5402757,77.2489209
fast_food,Burger King,28.5232640,77.2080181
fast_food,Royal Chicken Biryani,28.5130606,77.2040734
fast_food,Bikaner Sweets,28.5295382,77.2152345
fast_food,Nawaab's Kitchen,28.5295037,77.2145284
fast_food,Haldiram's,28.6280210,77.3751752
fast_food,Jain Shikanji,28.6003484,77.2603868
fast_food,Hotspot Pizzeria,28.5009789,77.1962866
fast_food,Shri Sai Food Corner,28.4985542,77.1896627
fast_food,Jain Shikanji,28.6028017,77.2656509
fast_food,Shiva Tourist Dhaba,28.5994011,77.2607100
fast_food,Subway,28.5800890,77.3152448
fast_food,fast food shop,28.7023935,77.2074733
fast_food,food shop,28.7137706,77.2168936
fast_food,Ahimsa food,28.5250281,77.2763046
fast_food,Vezlay food Pvt Ltd,28.6896853,77.2986638
fast_food,Cigarette shop,28.6249306,77.2303900
fast_food,NutrioBox Preet Vihar,28.6467219,77.3016266
fast_food,Nutriobox Janakpuri,28.6249115,77.0918909
fast_food,NutrioBox Gurugram,28.4798283,77.0817510
fast_food,zaika kathi rolls,28.5348753,77.2910585
fast_food,Unknown,28.5472973,77.3576773
food_court,Food Court,28.6144090,77.2767565
food_court,Naval Officers Mess,28.5725158,77.1389666
food_court,FRUIT & CHATT CORNER,28.6297651,77.2224663
food_court,Food Croner,28.6301640,77.2230255
food_court,Sheetal Paan Corner,28.6575450,77.3234780
food_court,Haldiram,27.8969744,78.0918590
food_court,Food Club,27.8960211,76.2819618
food_court,Indira rasoi Yojna,27.8932459,76.2889745
food_court,Jai baba mohan Ram Burger,27.8921100,76.2939174
food_court,Spice and Space,27.8915320,76.2940887
food_court,Dining Hall,27.9203509,78.0761018
food_court,Unknown,28.3947811,77.0318362
food_court,Priya Sweet Corner,28.6466874,77.4442108
food_court,GoKhana,28.3921944,77.0590370
ice_cream,Shake Sahab,28.6348833,77.2221046
ice_cream,Kermal Mahal Kulfi,28.6474152,77.2288691
ice_cream,Naturals,28.5514630,77.2053927
ice_cream,Ice Bakery,28.5439030,77.2301277
ice_cream,Baskin Robbins,28.6068930,77.2906357
ice_cream,kuremal mohanlal kulfiwale,28.6476472,77.2269058
ice_cream,Naturals,28.5714856,77.2373191
ice_cream,Havmor Ice Cream,28.7122097,77.1309064
ice_cream,Giani's,28.5363144,77.2113421
ice_cream,Havmor,28.5511522,77.2045076
ice_cream,Giani,28.5513013,77.2045766
ice_cream,Baskin Robbins,28.5485369,77.2369153
ice_cream,Giani,28.5622334,77.2450357
ice_cream,Cocoberry,28.5347957,77.2080378
ice_cream,Bistro 57,28.6351241,77.2212339
ice_cream,Kulfiano,28.6935367,77.2045676
ice_cream,Crème Borne,28.6351364,77.2218513
ice_cream,Naturals Ice Cream,28.5366242,77.2385223
ice_cream,Keventers,28.5617494,77.2437006
ice_cream,Keventers,28.5699324,77.2199272
ice_cream,Keventers,28.6316576,77.2161886
ice_cream,Keventers,28.6823237,77.2064451
ice_cream,Keventers,28.6495788,77.1916033
ice_cream,Keventers,28.5426017,77.1555423
ice_cream,Keventers,28.5285018,77.2189270
ice_cream,Keventers,28.5514470,77.2512737
ice_cream,Keventers,28.5494797,77.2361657
ice_cream,Keventers,28.5237344,77.2069788
ice_cream,Keventers,28.5421453,77.2532200
ice_cream,Keventers,28.6274773,77.2195781
ice_cream,Keventers,28.6421293,77.1859843
ice_cream,Havmor,28.5425615,77.2525201
ice_cream,Giani's,28.6260671,77.4354425
ice_cream,Jaatre Ice Cream,28.5588140,77.2734146
ice_cream,Havmore,28.7071840,77.1394687
ice_cream,Gianis,28.6821815,77.1921684
ice_cream,Mother Dairy,28.6188551,77.2866712
ice_cream,Cold Love Artisanal Ice Cream,28.6301157,77.2199015
ice_cream,Baskin-Robbins,28.6079610,77.2296189
ice_cream,Gianis,28.6079309,77.2296182
ice_cream,Giani's Ice Cream,28.3916172,77.0300980
ice_cream,Baskin-Robbins,28.6346493,77.2218207
ice_cream,Kuremal's Kulfi,28.6350396,77.2219494
ice_cream,Giani Ice Cream,28.5368324,77.2116933
ice_cream,Tounge twisters,28.3870128,77.3531087
ice_cream,Giani's,28.6349855,77.2220055
ice_cream,Creamy Fun,28.6347065,77.2222726
ice_cream,Giani’s Ice Cream,28.3950383,77.0314327
ice_cream,Dolce Gelato,28.3825402,77.0528147
ice_cream,Gianis,28.5371527,77.2120934
ice_cream,Chowpatty Juice and Ice Cream Parlour,28.7418880,77.1659567
ice_cream,Giani's,28.6426719,77.2963531
ice_cream,Kuremal Mahavir Prasad Kulfiwale,28.6426952,77.2963291
ice_cream,King's Kulfi and Ice Creams,28.6424629,77.2960290
ice_cream,Kurémal's Kulfi,28.6423617,77.2959478
ice_cream,Zafran Kulfi Falooda,28.6369399,77.2864881
ice_cream,Havmor,28.6370523,77.2864715
ice_cream,Berry Brothers,28.6372039,77.2862451
ice_cream,Unknown,29.1513898,77.7144013
ice_cream,Unknown,29.1514058,77.7144886
ice_cream,Kuremal's Kulfi,28.6296135,77.2324003
ice_cream,Naturals,28.6435354,77.2982993
ice_cream,Unknown,28.7360836,77.2973778
ice_cream,MAA VAISHNAVI ENTERPRISES,28.6893337,77.2996624
ice_cream,Nirulas,28.6361223,77.3619491
ice_cream,nic,28.6795063,77.2081436
ice_cream,Havmor,28.6793682,77.2081153
ice_cream,Baskin-Robbins,28.6793184,77.2081019
ice_cream,Naturals,28.6791015,77.2080393
ice_cream,Gianis,28.5885311,77.1688570
ice_cream,Waffle O'Clock,28.5880117,77.1678041
ice_cream,Nic,28.5871630,77.1690583
ice_cream,Shrinath Mix Ice Cream,28.6225090,77.2904649
ice_cream,Angels In My Kitchen,28.4532749,77.0825018
ice_cream,Amit Kulfi Bhandar,28.6225812,77.2901723
ice_cream,Biiyii Dondurma Turkish Ice Cream,28.6376713,77.2863465
ice_cream,Amul Ice Cream,28.6376200,77.2864449
ice_cream,Original Ice Creams,28.6369191,77.2864183
ice_cream,McDonald's,28.6370002,77.2863452
ice_cream,Nirula's Icecream,28.6368107,77.2861597
ice_cream,Nirula's Ice Cream,28.6367626,77.2861334
ice_cream,Twist Bell Turkish Ice-cream,28.5546686,77.1950056
ice_cream,Naturals,28.6343083,77.2221112
ice_cream,Hello's Shakes And Softy,28.6454704,77.1888422
ice_cream,CocoBerry,28.5498615,77.2333343
pub,Unknown,28.4667736,77.0614275
pub,Machaan,28.4996949,77.0961326
pub,MyBar,28.6405551,77.2107627
pub,PWO house,28.4574910,77.0764090
pub,Monkey Bar,28.5372110,77.1471275
pub,Kaffeine,28.5535626,77.1941956
pub,Unknown,28.6491765,77.1437436
pub,Imperfecto,28.5547346,77.1951084
pub,Dadel,28.5577445,77.1649005
pub,Lord of the Drinks,28.6365880,77.2874788
pub,The blue tokai,28.5596317,77.1968193
pub,Tipsy Room,28.5876445,77.1671767
pub,The Chatter House,28.5516149,77.2519393
pub,floks,28.3925343,77.0591629
restaurant,Park Baluchi,28.4684904,77.0644002
restaurant,Dhaba,28.2972557,77.0670586
restaurant,Unknown,28.6069461,77.2299189
restaurant,Naveidyam,28.4649041,77.0789762
restaurant,Flavours Restaurant,28.5663466,77.2340571
restaurant,Unknown,28.5192021,77.1611109
restaurant,Nirula's,28.5226640,77.1655706
restaurant,Food Court,28.4755165,77.0931248
restaurant,Gulshan Dhaba,29.0337787,77.0711437
restaurant,Pahalwan Dhaba,29.0338614,77.0711106
restaurant,Ahuja Dhaba,29.0339270,77.0710865
restaurant,Amrik Sukhdev,29.0587033,77.0635163
restaurant,Pahalwan Dhaba,29.0312115,77.0729063
restaurant,Raj Restaurant,28.4446821,77.0596627
restaurant,Haldiram,28.4012573,76.9886452
restaurant,Aggarwal Sweets,28.5342313,77.2145639
restaurant,Raju Dhaba,28.5308092,77.2179083
restaurant,Sagar Ratna,28.5369219,77.2118299
restaurant,Berco's Garden,28.5942220,77.3389703
restaurant,Central market,28.6368844,77.3760100
restaurant,Unknown,28.2732801,77.0670985
restaurant,Sagarrathna,28.6740388,77.1037651
restaurant,Aggarwal Restaurant,28.7988933,77.0352522
restaurant,Pizza Hut,28.4218602,77.0909997
restaurant,Pizza Hut,28.5917336,77.3484898
restaurant,Hotel Metropolis,28.6407045,77.2105994
restaurant,Piccadelhi,28.6352430,77.2196937
restaurant,Unknown,29.6129705,76.1268761
restaurant,Aangan Restuarant,28.6361048,77.0652214
restaurant,Bangla Foods,28.6334431,77.2084285
restaurant,Unknown,28.4171640,77.0466960
restaurant,Unknown,28.6234479,77.0919202
restaurant,Agarwal Sweet Place,28.6653614,77.2842171
restaurant,CLUB 26,28.5791401,77.3346425
restaurant,Bai Dur Ya,28.7035418,77.2283038
restaurant,Unknown,28.5622333,77.2688316
restaurant,Dawat Khana Restaurant,28.5623630,77.2686705
restaurant,Spice Route,28.6253844,77.2181175
restaurant,Good Earth,28.5995254,77.2263950
restaurant,Nathus Sweets,28.6297269,77.2320267
restaurant,Bengali Sweet House,28.6294650,77.2318985
restaurant,Lizo Canteen,28.3676620,77.3173494
restaurant,Unknown,28.5384129,77.1328702
restaurant,Bikanervala,28.6532866,77.3427559
restaurant,Aggarwal Sweets Point,28.6642061,77.3230335
restaurant,Tyagi Restaurant,28.6131958,76.9857968
restaurant,Unknown,28.6170799,76.9840106
restaurant,Agarwal Sweet Corner,28.6096134,76.9853973
restaurant,Unknown,28.6174849,76.9840696
restaurant,Unknown,28.5668787,77.2467816
restaurant,Unknown,28.5705375,76.9074736
restaurant,Bukhara,28.6142041,77.3715342
restaurant,Culinaire,28.5307368,77.2457792
restaurant,Pizza Hut,28.4684035,77.0624832
restaurant,Gung the palace,28.4692697,77.0623996
restaurant,Spaghetti Kitchen & Bar,28.4684555,77.0624238
restaurant,The Oriental Bloom (Chinese and Thai),28.4683891,77.0635176
restaurant,Gola Sizzles,28.4684189,77.0635414
restaurant,Swagath,28.4698181,77.0627594
restaurant,"Zooby's Kitchen,Al-Bake",28.5455297,77.3058508
restaurant,Club India Restaurant,28.6409319,77.2137081
restaurant,New Mt. Everest Restaurant,28.6410340,77.2138360
restaurant,Andhra Bhawan Canteen,28.6169212,77.2259980
restaurant,Unknown,28.5393791,77.2009833
restaurant,Karim's,28.6494286,77.2337411
restaurant,Moti Mahal,28.6461911,77.2400153
restaurant,Unknown,28.0149362,76.4738144
restaurant,Berco's,28.6323764,77.2172154
restaurant,Barbecue Grill,28.4736151,77.0786935
restaurant,All American Diner,28.5892240,77.2257380
restaurant,Lama Kitchen Himalayan Cook House,28.5536129,77.1942284
restaurant,Pizza Hut,28.5575626,77.1640349
restaurant,Sagar Ratna,28.8956151,76.6076779
restaurant,Gulab Rewri,28.8967048,76.6091775
restaurant,The Great Kebab Factory,28.6705911,77.1339317
restaurant,Ajit Khalsa Dhaba,28.4965669,77.1846642
restaurant,Indian Coffee House,28.6306895,77.2160507
restaurant,Hira Sweets,28.6353527,77.2200630
restaurant,Sayam Roof Top Restaurant,28.6411417,77.2137445
restaurant,Unknown,28.5896864,77.3615378
restaurant,Keshav Restaurant,28.6337495,77.2230833
restaurant,Domino's,29.6949422,77.0015622
restaurant,ccd,28.4997640,77.2370308
restaurant,The exotic rooftop restaurant,28.6409844,77.2137687
college,"Jaypee Institute of Information Technology, Noida",28.6300443,77.3720823
college,"Jaypee Business School, Noida",28.6291951,77.3713840
college,DCAC,28.5778727,77.1845461
college,Laxmi Bai College,28.6853049,77.1826403
college,Indraprastha Engineering College,28.6591012,77.3399845
college,ABES engineering college,28.6337977,77.4458036
college,The Institution of Electronics and Telecommunication Engineers,28.6098274,77.1006564
college,CSIR-NIScPR,28.6384835,77.1733650
college,Regional Skill Development Centre,28.4524063,77.1416722
college,Regional Skill Development Centre,28.4530389,77.1477573
college,Academic Research Centre,28.6950031,77.2104001
college,Department of Education,28.6943627,77.2102739
college,Department of Library And Information Science,28.6898502,77.2078018
college,St Stephens College,28.6856581,77.2117170
college,CPWD Training Institute,28.6765410,77.4643412
college,Indraprastha Institute of Science and Technology,28.5527332,77.2684563
college,Govt College Kosli,28.4004464,76.4787387
college,PDM College of Engineering,28.6875601,76.8898603
college,S. K. Govt College Kanwali,28.3077031,76.4061622
college,"New Building, Faculty of Law, Delhi University",28.6898780,77.2098900
college,Maharaja Agrasen Institute of Technology,28.7196184,77.0661762
college,P.G.D.A.V. College,28.5665107,77.2513052
college,Ojas Institute of Management,28.7363305,77.1284258
college,Shaheed Sukhdev College of Business Studies,28.7325136,77.1186337
college,IILM,28.4336469,77.1028475
college,Tender Heart NGO,28.3859974,77.3658672
college,Dyal Singh College,28.5907293,77.2309735
dancing_school,Kirti Natya Niketan,28.7361525,77.1101245
dancing_school,Fluidic Dance Academy,28.7345687,77.1094956
dancing_school,ARIHANT DANCE ACADEMY,28.6888571,77.2922058
dancing_school,M Dance Academy,28.8009627,76.1388166
driving_school,Krishna Motor Driving School,28.6167528,77.2876622
driving_school,Shivshakti Driving School,28.9833715,77.7352360
driving_school,KHUSHI MOTOR DRIVING TRAINING SCHOOL,28.6616707,77.3778183
kindergarten,Masti ki Pathshala (Teach India),28.5158272,77.0453164
kindergarten,Unknown,28.6023098,77.0450914
kindergarten,The Hope Project,28.5903058,77.2419000
kindergarten,Unknown,28.6178334,76.9843272
kindergarten,Kids Meadows,28.5561109,77.0571541
kindergarten,Petals School,28.5803757,77.2570530
kindergarten,Kids and Kids,28.6475289,77.3460134
kindergarten,Kingdom of Kids,28.5424418,77.2180108
kindergarten,Klub dé Niños,28.5689757,77.1627474
kindergarten,Early Years,28.5498387,77.2480443
kindergarten,Mother's Pride,28.5477704,77.2490814
kindergarten,Scottish Early Years,28.5631714,77.1614280
kindergarten,Ram Pre Primary School,28.5522732,77.1368775
kindergarten,todllers townn,28.5353149,77.2168348
kindergarten,Little Millennium,28.5130679,77.2040027
kindergarten,Unknown,28.6265743,77.2325003
kindergarten,Bon Accent,28.7125877,77.1319602
kindergarten,Rime Kids,27.8947242,76.2907817
kindergarten,Mother Pixies Kids School,28.6803238,77.3122724
kindergarten,Fun Valley,28.6333424,77.3069961
kindergarten,Baby Doux,28.6028862,77.2220107
kindergarten,Little Planet Pre School,28.7419760,77.1330579
kindergarten,Learning Matters,28.5549832,77.2022197
kindergarten,Duck Duck Goose,28.6462818,77.1263579
kindergarten,Duck Duck Goose Kids Play Zone,28.6456119,77.1263580
kindergarten,Lil Birdiez,28.7195588,77.1731899
kindergarten,Planet School,28.9880949,77.7316796
kindergarten,Kiddos Family Play School,28.6224206,77.2948755
kindergarten,Footprints,28.7351493,77.1108471
kindergarten,House of Happiness,28.7368720,77.1111523
kindergarten,Blossom Smart Kids,28.6373691,77.3039432
kindergarten,SS Kindergarten,28.4308351,77.3165419
kindergarten,Kingdom of Kids,28.4266066,77.0702469
kindergarten,Golden Bells Early Years,28.6873131,77.1213517
kindergarten,Grow In Steps - Pre School,28.7326689,77.0884462
kindergarten,Unknown,28.6947310,77.1077450
kindergarten,Teeny Town,28.6425568,77.2970774
kindergarten,Intel Litots,28.9755027,77.7324128
language_school,NEC,28.5704608,77.2371259
language_school,Mundo Latino,28.5689101,77.2257334
language_school,LearnningTree,28.5836421,77.2176258
language_school,The Community For Learners,28.7430383,77.1606083
language_school,Unknown,27.7699433,77.9936657
library,Unknown,28.3675560,77.3173949
library,Central Library,28.5402647,77.1683426
library,Unknown,28.4942666,77.2047752
library,Central Arts Library,28.6895399,77.2085628
library,Unknown,28.6326963,77.2367350
library,Marwari Public Library,28.6563835,77.2314822
library,Shree Mahavir Jain Public Library,28.6563695,77.2309239
library,Library,28.6860602,77.2112951
library,Unknown,28.9303040,77.6387925
library,Delhi Public Library,28.5666919,77.2486547
library,Lal Bahadur Shastri Library,28.5666890,77.2485614
library,Unknown,28.6303470,77.2415723
library,Ambience Library,28.5084355,77.2008302
library,Unknown,28.5406010,77.2427929
library,Unknown,28.6468590,77.1597232
library,NCR library,28.4609610,77.0788870
library,Bahrisons,28.4674530,77.0822773
library,library,28.7135899,77.2167691
library,district library gurgaon,28.4600912,77.0332843
library,Delhi Public Library,28.5844558,77.2248024
library,Central Library,28.5438974,77.3348456
library,Maulana Azad Library,27.9119729,78.0753369
library,Central Library,28.6103953,77.0389687
library,Siddhant the study library and reading cafe,28.6413463,77.4068396
library,Library NDRI,29.7034098,76.9849113
library,GOVERNMENT DISTRICT LIBRARY,27.8935311,78.0725727
library,sharda,27.8920560,76.2876535
library,AB Library,27.8954300,76.2824495
library,S S Chanakya Library,28.1885518,76.6143728
library,Urban Reads Self Study Library,29.4800806,77.7239286
library,Unknown,27.7740950,77.9896450
library,Unknown,27.7729601,77.9890836
library,Zakir Hussain Library (JMI),28.5625944,77.2815060
library,Cozy Library,28.9679582,77.7368943
library,Bibliotheca,28.6373936,77.3041255
library,acme lib,28.6921105,77.2924273
library,Central Library,28.8015759,76.1363174
library,dubey library,28.8245982,77.5759439
library,daksh institute of technology,28.8396471,77.5803535
library,Unknown,28.7358926,77.2963134
library,DEEP STUDY LIB,28.6895949,77.2953063
library,JVCC Library,28.5848906,77.3367985
library,KNOWLEDGE HUB LIB,28.6867672,77.2855948
library,Unknown,28.0415787,76.1088421
library,Unknown,28.0742567,76.1048293
library,DTU Library,28.7506425,77.1165275
library,Nirwan Library,28.7319529,77.1419899
library,Pratap Library,28.6226815,77.2905549
library,Vachanalaya,28.5957593,77.1226782
library,Palika Library,28.6295291,77.2337334
research_institute,NATIONAL DAIRY RESEARCH INSTITUTE,29.7006603,76.9858209
research_institute,Indian Institute of Pesticide Formulation,28.5063389,77.0934000
training,Chanakya IAS Academy,28.5882606,77.1685592
training,Robotics Training and Workshop,28.5155013,77.2056319
training,Barry John Acting Studio,28.5650693,77.2485237
training,TechStack,28.5194093,77.2009034
music_school,Global Music Institute,28.5672410,77.2482732
music_school,Unknown,28.6266459,77.2323580
music_school,Fitness Mantra,28.5692469,77.2486371
music_school,Echo Music School,28.5256057,77.2614615
music_school,School of Dance and Music,28.6289112,77.2779076
music_school,S.G.S. Music,28.6531063,77.2859524
music_school,Theme Music Institute,28.5490069,77.2345450
music_school,Parikrama School of Music,28.5548828,77.1950596
music_school,Mathews Music Academy,28.7237530,77.1682613
music_school,Masand,28.9793664,77.7314676
music_school,Lilanoor Center For Voice And Music,28.5640924,77.2201443
music_school,Shiva Dance and Music Academy,28.7361483,77.1089283
music_school,Jugalbandi,28.6618890,77.3791527
music_school,Sadhana Sangeet College,28.5835780,77.0711671
school,Heritage International School,28.5084497,77.1665460
school,Deep Public School,28.5117155,77.1634819
school,Unknown,28.4896385,77.1384019
school,"Delhi Public School, Primary Section",28.4295352,77.0525305
school,CR Model Public School,28.4463106,77.0458728
school,Salvan Public School,28.4636101,77.0465147
school,"Government Secondary School, Damdama",28.3022552,77.1238130
school,Stones2milestones,28.4539934,77.0783203
school,Secondary School,28.5978094,77.1808404
school,Government Boys and Girls Senior Secondary School,28.6114104,76.9877135
school,Government(Bada school),28.7946905,77.0372885
school,Unknown,28.5962679,77.1777010
school,Govt. Girls Senior Secondary School,28.5738590,77.1842457
school,DPS International School,28.5697886,77.1783234
school,Jose Martin Sarvodya Vidyalya,28.5712962,77.1781517
school,Ralli International,28.6447490,77.3756077
school,DPS Indirapuram,28.6459659,77.3800361
school,DPS Indirapuram,28.6475454,77.3764446
school,"NIIT - New Friends Colony, South Delhi",28.5603226,77.2667188
school,Unknown,28.4616751,77.0787484
school,Sumermal Jain Public School,28.6300965,77.0940113
school,American Montessori,28.4850535,77.0809770
school,Kamla International,28.4180880,77.0612000
school,Ratan Devi Girls Senior Sec. School,28.6614428,77.2799953
school,St. Angels (Jr),28.4469205,77.0651743
school,St. Angels (Sr),28.4419185,77.0695058
school,"Delhi Public School, Dwarka",28.6059739,77.0479506
school,"Govt. Primary Boys School, Sidhrawali",28.2662766,76.8324001
school,"Govt. Primary Girls School, Sidhrawali",28.2669425,76.8338851
school,"Govt. Senior Secondary School, Sidhrawali",28.2687959,76.8328043
school,Suman Public School,28.2665063,76.8335477
school,Holy Cross School,28.6147687,76.9811687
school,Unknown,28.6182087,76.9837474
school,Krishna Model School,28.6060798,76.9851170
school,Mitraon Govt School,28.6067575,76.9396906
school,Ujwa Govt School,28.5704851,76.9036618
school,Govt Primary School Malik Pur,28.5511020,76.8999464
school,Govt Primary School DaryaPur,28.5527630,76.9075424
school,Govt Senior Secondary School,28.6024715,76.9317444
school,Mohan International School,28.6138206,77.3665480
school,Kendriya Vidhyalya,28.6826588,77.1578285
school,New Ideal Public School,28.5467878,77.2921488
school,school of social sciences1,28.5402304,77.1671958
school,Jai Bharti Public School,28.5464998,77.2925361
school,Disha Public School,28.5480622,77.2929511
school,Good Samaritan Public School,28.5464098,77.2956047
school,Jasola Public School,28.5483522,77.2930513
school,MCD Public School,28.5482349,77.2940566
school,Bharat Vasisht Vidya Mandir,28.4717157,77.1285742
school,GBU School of Management,28.4172577,77.5222500
school,"GBU School of Information, Communication and Technology",28.4170725,77.5234695
school,GBU International Center,28.4162885,77.5261271
school,GBU School of Biotechnology,28.4191612,77.5212464
school,Cambridge Primary School,28.5662292,77.2746488
school,Shyama Prasad Vidyalaya,28.5968399,77.2253633
school,"Government High School, Gudha",28.3120792,76.2538397
school,Delhi International School,28.5642198,77.0578228
school,Paramount International School,28.5637249,77.0574223
school,Basava International School,28.5648745,77.0554160
school,The Indian Heights School,28.5618483,77.0527569
school,Mount Carmel,28.5606530,77.0586025
school,Guru Nanak Public School,28.6699013,77.1326211
school,S M Arya Public School,28.6721011,77.1337166
school,SD Public School,28.6677379,77.1393322
school,Vishal Bharti Public School,28.6776074,77.1002235
school,St. Nirankari Public School,28.6760310,77.1072725
school,Rajkiya Pratibha Vikas Vidyalaya,28.6757409,77.1066654
school,Sarvodaya Vidyalaya,28.6750003,77.1058706
school,Government Higher Secondary School,28.6739957,77.1271291
school,Sarvodaya Co-Educational School,28.6692325,77.1497669
school,Government Senior Secondary School,28.6535437,77.1658655
school,Sarvodaya Kanya Vidyalaya,28.6523480,77.1655973
school,Govt. Boys HB School,28.6541792,77.1660801
school,DAV School,28.6471225,77.1680059
school,Vidya Bhawan Senior Secondary School,28.6387283,77.1763691
school,Sindhi Higher Secondary School,28.6357621,77.1778604
school,Manav Sthali School,28.6352772,77.1782466
school,Andh Kanya Vidyalaya,28.6368309,77.1803119
school,DI Khan Bharati Sabha Higher Secondary School,28.6307618,77.1795502
school,Bapu Adarsh Vidyalaya,28.6306394,77.1804675
school,Swami Dayanand Govt. Sarvodaya Vidyalaya,28.6397954,77.1856155
school,GD Salwan Public School,28.6403133,77.1858677
school,Bosco Sr. Sec School,28.6681733,77.0862745
school,Don Bosco School,28.5285072,77.2473321
school,M B Boys School,28.6350118,77.2002755
school,Raisina Bengali School,28.6362148,77.2008393
school,govt sec school,28.4618627,77.0327425
school,Sarvodaya Kanya Senior Secondary School,28.6896388,77.1560501
school,HIRA YOGA TRAINING KENDER,28.7551761,77.1344924
school,Vidya Mandir Inter College,28.9505113,77.7278717
school,Unknown,28.6927134,77.1114558
school,Sahoday Senior Secondary School,28.5526424,77.2002206
school,St. Peters School,28.4139784,77.3139529
school,Nida uloom,29.1502216,77.6042577
school,Delhi Public School,28.5386253,77.1479893
school,NAS inter college,28.9841039,77.7115797
school,Unknown,28.4258820,77.1063480
school,Little Ones Public School,28.5195510,77.2035198
school,deepak vaiyas home,28.6254880,77.1133697
school,jbkp,28.3829820,77.4506337
school,echelon,28.3872703,77.4440745
school,Chiranjiv Bharati School,28.5194596,77.0376580
school,Swiss Cottage school,28.5157955,77.0502838
school,MAAC,28.5692131,77.2175752
school,SCM Public School,28.7232712,77.8534182
school,Govt. School,28.7144910,77.2164605
school,Jagriti Institute of Higher Education,28.2155050,77.4419304
school,Saraswati Modern Public School,28.2150406,77.4429788
school,DAV Public School Pushpanjali,28.6939915,77.1081266
school,Unknown,28.6974730,77.1370459
school,Evolution dance school,28.8032691,77.0512991
school,"Government High School, Bilaspur",28.2860264,76.8659642
school,Dev Public School.,28.6304673,76.9685752
school,Unknown,29.0228813,77.7720511
school,Unknown,29.1499041,77.5998925
school,Unknown,29.2894454,77.9497953
school,Unknown,28.9266187,77.0577206
school,Unknown,28.8286965,76.7241864
school,S.D. Public,28.6473887,77.1693910
school,FORE School of Management,28.5370038,77.1849245
school,Unknown,28.5399104,77.5670195
school,Modern school,28.5788563,77.0542962
school,Venkateshwara international school,28.5889898,77.0389764
school,Unknown,28.5949179,77.0432993
school,Unknown,28.5942654,77.0435893
school,Unknown,28.6331399,76.9537195
school,St. Prayag school,28.6918581,77.1168424
school,Mount abu junior branch school,28.7117973,77.1023916
school,Shivalik Public School,28.9882694,77.7055347
school,Kendrya Vidyalya,28.7051428,77.1699743
university,JCB block,29.0254570,77.0585085
university,D.C.R.U.S.T,29.0251333,77.0579291
university,E2- Block,28.5445826,77.3338694
university,Jamia Hamdard,28.5153806,77.2502919
university,School of Open Learning,28.6933735,77.2131869
university,Gargi College,28.5550140,77.2184350
university,Sharda University,28.4734073,77.4829339
university,Delhi Technical Campus,28.4746766,77.4764806
university,E-1 Block,28.5451643,77.3343636
university,E-3 Block,28.5443355,77.3333368
university,K-1 Block,28.5457879,77.3351404
university,K-2 Block,28.5454107,77.3359596
university,K-3 Block,28.5447798,77.3361581
university,J-1 Block,28.5444779,77.3353547
university,I-1 Block,28.5430926,77.3336792
university,1-2 Block,28.5426088,77.3335036
university,I-3 Block,28.5425327,77.3330706
university,F-1 Block,28.5436771,77.3330489
university,F-2 Block,28.5434457,77.3327638
university,F-3 Block,28.5431350,77.3323741
university,J-3 Block,28.5434459,77.3341183
university,Chaudhary Charan Singh University,28.9670170,77.7388619
university,Institute of social science,28.5316826,77.1495711
university,MVN University,28.0155993,77.3339873
university,School of Hospitality,28.3654877,77.5419595
university,Amrita Vishwa Vidyapeetham,28.4254853,77.3574698
university,Guru Govind Singh Indraprastha University,28.6657347,77.3025984
university,PGIMS Dean's office,28.8790932,76.6031329
bicycle_parking,Tonga Stand,28.6792205,77.1970277
bicycle_parking,Unknown,28.6324316,77.4387452
bicycle_parking,Unknown,28.5340993,77.2099344
bicycle_parking,IIT Hospital,28.5457509,77.1882752
bicycle_parking,IIT - Block I,28.5455077,77.1929307
bicycle_parking,IIT - Zanskar,28.5469655,77.1858941
bicycle_parking,Bharti School,28.5450170,77.1898196
bicycle_parking,IIT - Playgrounds,28.5447672,77.1896465
bicycle_parking,Hungarian Embassy - Delhi,28.5855109,77.1877136
bicycle_parking,Unknown,28.5688956,77.2131677
bicycle_parking,Unknown,28.5541725,77.1975607
bicycle_repair_station,Unknown,28.5677814,77.1606643
bicycle_repair_station,Unknown,28.5673557,77.1655676
bicycle_repair_station,Unknown,27.7713596,77.9874993
bicycle_repair_station,Unknown,28.6875278,77.3017569
bicycle_repair_station,Unknown,28.7360236,77.2955271
vehicle_inspection,PUC,28.6473063,77.3786234
vehicle_inspection,PUC Center,29.6850253,77.6820632
charging_station,Unknown,28.5553810,77.2284180
charging_station,Unknown,28.6336834,77.2219946
charging_station,Unknown,28.6336147,77.2218243
charging_station,Unknown,28.9311189,77.0997110
charging_station,Unknown,28.6341092,77.2202799
charging_station,Unknown,28.6337980,77.2208339
charging_station,Unknown,28.5854347,77.2203893
charging_station,Unknown,28.5870560,77.2120476
charging_station,Unknown,28.5865591,77.1934263
charging_station,Unknown,28.5866112,77.1934058
charging_station,Unknown,28.6342608,77.2206422
charging_station,Unknown,28.6342760,77.2209612
charging_station,Unknown,28.6350123,77.2197325
charging_station,Unknown,28.6341151,77.2176510
charging_station,Unknown,28.6327684,77.2228545
charging_station,FCS,28.6680488,77.3739552
charging_station,FCS -2,28.6699882,77.3792992
charging_station,FCS,28.6669889,77.3716593
charging_station,GBU- CHARGING STATION,28.4245314,77.5209704
charging_station,BISRAKH FCS,28.5747161,77.4453156
charging_station,BOTANICAL FCS,28.5651948,77.3343937
charging_station,ELECTRICITY HOUSE,27.8943813,78.0735323
charging_station,Plug N Go,28.6214714,77.2936333
charging_station,Unknown,28.5288838,77.2137728
charging_station,Unknown,28.6309440,77.2233578
charging_station,Unknown,28.6310563,77.2230955
charging_station,Unknown,28.6040475,77.1977963
charging_station,Unknown,28.6040394,77.1977808
charging_station,Unknown,28.6040316,77.1977661
charging_station,Unknown,28.5483686,77.2547221
charging_station,Unknown,28.5482674,77.2545695
charging_station,Unknown,28.5483966,77.2547099
charging_station,Unknown,28.5692695,77.1884585
charging_station,Unknown,28.5692799,77.1883649
charging_station,Unknown,28.6223720,77.2902460
charging_station,Unknown,28.6223602,77.2902508
charging_station,Unknown,28.5426954,77.2219126
charging_station,Unknown,28.6335730,77.2234733
charging_station,Unknown,28.5903206,77.2201483
charging_station,Unknown,28.5902808,77.2197587
charging_station,Unknown,28.5903207,77.2201225
charging_station,Unknown,28.5903054,77.2199561
charging_station,Unknown,28.6003513,77.2267809
charging_station,Unknown,28.5969250,77.2229085
charging_station,Unknown,28.4188726,77.0392065
charging_station,Unknown,28.5633830,77.2647745
charging_station,Unknown,28.7263595,77.1628441
charging_station,Unknown,28.7242899,77.1802238
charging_station,Unknown,28.6342282,77.2195272
charging_station,Unknown,28.6993047,77.2039490
charging_station,Unknown,28.6992861,77.2039990
charging_station,Unknown,28.6315233,77.2199032
charging_station,Unknown,28.5404442,77.2349474
charging_station,Unknown,28.5715108,77.2369501
charging_station,Unknown,28.5715706,77.2369881
charging_station,Unknown,28.5443474,77.2455856
charging_station,Unknown,28.5443273,77.2455165
charging_station,Unknown,28.5844378,77.2205342
charging_station,Unknown,28.6224350,77.2890724
charging_station,Unknown,28.5497356,77.2594429
charging_station,Unknown,28.5497042,77.2594888
charging_station,Unknown,28.5496589,77.2595584
charging_station,Unknown,28.5496792,77.2595256
charging_station,Unknown,28.5497534,77.2594016
charging_station,Unknown,28.5697606,77.2381099
charging_station,Unknown,28.6019074,77.2372717
charging_station,Unknown,28.5508417,77.2343743
charging_station,Unknown,28.5508303,77.2343614
charging_station,Unknown,28.6177007,77.2870300
charging_station,Unknown,28.6176864,77.2870367
charging_station,Unknown,28.6606575,77.1433393
charging_station,Unknown,28.6672518,77.2532299
charging_station,Unknown,28.6672527,77.2532856
charging_station,Unknown,28.6672520,77.2532583
charging_station,Unknown,28.6229566,77.2989161
charging_station,Unknown,28.6531076,77.1562309
charging_station,Switch Station,28.6530158,77.1563495
charging_station,Unknown,28.6531276,77.1561984
charging_station,Unknown,28.6338798,77.2175045
charging_station,Unknown,28.6272979,77.2319249
charging_station,Unknown,28.5508115,77.2510865
charging_station,Unknown,28.5508585,77.2510569
charging_station,Unknown,28.5544887,77.1959390
charging_station,Unknown,28.6286105,77.2196866
charging_station,Unknown,28.6799791,77.2085882
charging_station,Unknown,28.5649281,77.2245367
charging_station,Unknown,28.5540272,77.2127580
charging_station,Ganpati Smart Point,28.6775315,77.2080457
charging_station,Unknown,28.6219707,77.1948236
charging_station,Unknown,28.5416057,77.2328267
charging_station,Unknown,28.5333783,77.2317719
charging_station,Unknown,28.5415970,77.2328551
charging_station,Unknown,28.5483295,77.2547433
charging_station,Unknown,28.5482916,77.2547553
charging_station,Unknown,28.5866420,77.2407912
charging_station,Unknown,28.5964138,77.2935572
charging_station,Unknown,28.5964138,77.2935572
charging_station,Swap Point,28.5442512,77.2646710
charging_station,Unknown,28.6382309,77.2873054
charging_station,Unknown,28.6316265,77.2220040
charging_station,Unknown,28.5133039,77.1860742
charging_station,Unknown,28.6886480,77.2067275
driver_training,Unknown,27.7701227,77.9879967
driver_training,Car Driving School Rajokari,28.5115046,77.1095515
driver_training,scooty learn and bike training school,28.4959206,77.2852757
fuel,Indian Oil,28.4892384,77.0909884
fuel,Bharat Petroleum,28.4324009,77.0478668
fuel,Indian Oil,28.4255168,77.0373704
fuel,Unknown,28.4374888,77.0351409
fuel,Unknown,28.4655210,77.0557112
fuel,Hindustan Petroleum,28.4767267,77.0664904
fuel,Unknown,28.4649633,77.0375084
fuel,Unknown,28.4651520,77.0378775
fuel,Indian Oil,28.4672528,77.0371571
fuel,Indian Oil,28.4946609,77.1507150
fuel,Indian Oil,28.5043431,77.1719993
fuel,IBP Petrol Station,28.4554895,77.0285383
fuel,Panchshila Service Station,28.5614441,77.2227829
fuel,Indian Oil Corportation,28.6043612,77.3230956
fuel,Bharat Petroleum,28.6345574,77.3154765
fuel,Indian Oil,28.6595640,77.3550818
fuel,Unknown,28.6393343,77.4572027
fuel,Unknown,28.5262252,77.1007834
fuel,Indian Oil,28.5336932,77.1070198
fuel,Indian Oil,28.6394831,77.4249813
fuel,Bharat Petroleum,28.6041804,77.3233182
fuel,Indian Oil Petrol Pump,28.6438531,77.3170505
fuel,Indian Oil,28.6552668,77.3472686
fuel,Indian Oil,28.6588641,77.3538527
fuel,Indian Oil,28.3818927,76.9672657
fuel,Petrol Pump Indian Oil,28.3926607,76.9783194
fuel,Petrol Pump Indian Oil,28.4098097,76.9929142
fuel,Petrol Pump IBP,28.4192219,76.9972650
fuel,Indian Oil,28.5262695,77.1561648
fuel,Unknown,28.6367525,77.4430498
fuel,Unknown,28.6414546,77.4531747
fuel,HP,28.5737882,77.2089741
fuel,Unknown,28.4729100,76.9592671
fuel,Unknown,28.4725460,76.9391982
fuel,Unknown,29.0256731,77.0707359
fuel,Indian Oil,28.2444353,77.0725091
fuel,Unknown,28.5351953,77.1431664
fuel,Bharat Petroleum,28.5229363,77.0996758
fuel,Indian Oil,28.5248952,77.1009670
fuel,Unknown,28.4639320,77.0726152
fuel,Bharat Petroleum,28.4518108,77.0752012
fuel,Unknown,29.4775425,77.6973290
fuel,Unknown,29.6897412,77.6820891
fuel,Unknown,29.7006895,77.6820443
fuel,Unknown,29.5780724,77.6893648
fuel,Unknown,28.3651932,77.0596218
fuel,Dhillon Filling Station,28.3461287,77.0675549
fuel,Unknown,28.4541686,77.0294308
fuel,Indraprastha Gas Limited,28.5848782,77.2602207
fuel,Indian Oil,28.6175988,77.2497911
fuel,Indraprastha Gas Limited,28.6186155,77.2493074
fuel,Indraprastha Gas Limited,28.6818859,77.2297995
fuel,Indian Oil,28.7314747,77.1839327
fuel,IBP Limited,28.7561213,77.1479760
fuel,Indian Oil,28.7943045,77.1391309
fuel,Bharat Petroleum,28.7962535,77.1390084
fuel,Bharat Pteroleum,28.8310950,77.1304498
fuel,Hindustan Petroleum,28.8558765,77.1257097
fuel,Unknown,28.8747471,77.1218454
fuel,Unknown,28.8754211,77.1203457
fuel,Indian Oil,28.8901304,77.1160838
fuel,Indian Oil,29.0449459,77.0679064
fuel,Bharat Petroleum,29.0609667,77.0642532
fuel,Indian Oil,29.0655068,77.0629419
fuel,Unknown,29.0904004,77.0557264
fuel,Unknown,28.9758591,77.0890603
fuel,Indian Oil,28.7010153,77.2271607
fuel,Indian Oil,28.5855272,77.3092979
fuel,Unknown,29.6714614,77.6815184
fuel,Unknown,29.5403447,77.7297003
fuel,Unknown,29.4861716,77.7471900
fuel,Unknown,29.4185373,77.7012766
fuel,Unknown,29.4063720,77.7019732
fuel,Unknown,29.3717742,77.7080388
fuel,Unknown,29.3094488,77.7290358
fuel,Indian Oil,29.1059870,77.7112326
fuel,Unknown,28.2039411,76.7739915
fuel,Unknown,28.1727896,76.7022596
fuel,Unknown,28.2051038,76.7611290
fuel,Unknown,28.2073115,76.7893891
fuel,Unknown,28.2900511,76.8608798
fuel,Unknown,28.3044260,76.8774119
fuel,Unknown,28.4383786,77.0896164
fuel,Unknown,28.2079316,76.9617554
fuel,Unknown,28.5937773,77.0778122
fuel,HP,28.6562179,77.0895469
fuel,Unknown,28.4809004,77.0247939
fuel,Unknown,28.6407470,77.1067165
fuel,Unknown,28.5910461,77.0374740
fuel,Unknown,28.5790955,77.0552344
fuel,CNG Fuel Station,28.5959237,77.0290084
fuel,Unknown,28.5436162,77.0668071
fuel,Unknown,28.6272836,77.1216961
fuel,Unknown,28.5733376,77.0639396
fuel,HP,28.5209438,77.0822696
fuel,Unknown,28.5226175,77.0230835
fuel,Unknown,28.4798102,77.0151659
fuel,HP,28.5490758,77.2501351
fuel,In & Out,28.5503785,77.2478224
fuel,Unknown,28.6633196,77.2185803
fuel,Unknown,28.1166471,76.5972408
fuel,Unknown,28.2232541,76.7987229
fuel,Indian Oil Petrol Bunk,28.1433821,76.6018971
fuel,Unknown,28.1382060,76.6015654
fuel,IO British Pentroleum,28.1915989,76.6160158
fuel,Unknown,28.1751344,76.9553136
fuel,Indian Oil,28.5703117,77.1865562
fuel,Unknown,29.4766853,77.7523039
fuel,Indian Oil,28.6243328,77.3749465
fuel,Unknown,28.6226568,77.0955455
fuel,Unknown,28.6536021,77.1189692
fuel,Unknown,28.6225631,77.0952665
fuel,Indian oil,28.5682310,77.2530590
fuel,Unknown,28.4722400,77.0719754
fuel,Unknown,28.4028689,77.2755056
fuel,Indian Oil,28.5750095,77.0675759
fuel,Indraprastha CNG gas station pump,28.5752361,77.0677560
fuel,HP (NFC),28.5712512,77.2598635
fuel,Unknown,28.4819429,77.1085002
fuel,Unknown,28.3899260,77.2939433
fuel,Indian Oil,28.2419169,77.0743869
fuel,Indian Oil,28.3088661,77.0663102
fuel,Unknown,28.6397503,77.1739956
fuel,Unknown,28.6396139,77.1740466
fuel,Heera Fuel Station,28.4318938,77.0994040
fuel,HCG CNG Station,28.4318987,77.0997366
fuel,IGL CNG Station,28.6675822,77.0875128
fuel,Fuel Station,28.6678882,77.0875826
fuel,Petrol Pump,28.6111468,76.9794295
fuel,Petrol Pump,28.6126726,76.9796548
fuel,Petrol Pump,28.6141749,76.9805689
fuel,Unknown,27.8003787,76.7368514
fuel,Unknown,28.7008618,77.1151548
fuel,Unknown,28.6882729,77.0897215
fuel,Unknown,28.4318132,77.3197388
fuel,Petrol pump Maitri motors ,28.3675991,76.9423133
fuel,IOC COCO Manesar,28.3426007,76.9378314
fuel,Petrol Pump,28.3762152,76.9567863
fuel,Indian Oil,28.5578343,77.1633987
fuel,Transportation: Bharat Petroleum Fuel Station,28.5769092,77.3585987
fuel,HP,28.5773251,77.3604055
fuel,Unknown,28.5632467,77.2647429
fuel,Unknown,28.6048283,77.0541707
fuel,Unknown,29.6527180,77.8369062
fuel,Unknown,29.6680755,77.8455683
fuel,"Bharat Petroleum, Petrol Pump - Karnal Petro Care",29.7034619,77.0068369
fuel,Unknown,29.6787006,77.0040023
fuel,Bharat Petroleum,28.5924259,77.2375948
fuel,Unknown,28.6746734,77.1300259
fuel,Unknown,28.6724660,77.1525081
fuel,Capt. Anuj Sharma Gas Station,28.6009072,77.3244290
fuel,Ruchika Petrol Pump,28.6036715,77.3355959
fuel,HP,28.5403844,77.1165560
fuel,Unknown,28.4162494,77.0891714
fuel,Unknown,29.4184351,76.9333409
fuel,Indian Oil Petrol Pump,28.6337158,77.2178321
fuel,Unknown,28.5323584,77.2670442
fuel,Unknown,28.6304459,77.0683725
fuel,Unknown,28.6610853,77.0038055
fuel,Unknown,28.6633448,77.0073192
fuel,Unknown,28.6189609,77.1127554
fuel,Unknown,28.5217581,77.1667456
fuel,HP COCO Fuel Station,28.6601228,77.1462871
fuel,Indian Oil,28.5377335,77.2844736
fuel,Badarpur Service Station,28.6196369,77.3411167
fuel,Unknown,28.6198358,77.3407980
fuel,Unknown,28.6261156,77.3338728
fuel,Unknown,28.6967023,77.2116936
fuel,Unknown,28.7074313,77.2246535
fuel,Unknown,28.6456770,77.3363961
fuel,Unknown,28.7212501,77.1093964
fuel,HP,28.7304280,77.1213536
fuel,Bharat Petroleum,28.7180141,77.1103196
fuel,Unknown,28.5763184,76.7929169
fuel,Unknown,28.5709641,77.1813607
fuel,Indian Oil,28.5442254,77.2015521
fuel,Bharat Petroleum,28.5479594,77.2560882
fuel,Bharat Petroleum,28.5739842,77.2574979
fuel,Unknown,29.4655202,77.6958622
fuel,Indian Oil,28.6020140,77.2371519
fuel,Bharat Petroleum,29.0349662,77.7072230
fuel,Unknown,29.0417196,77.7072911
fuel,Indian Oil,28.5859568,77.2602284
fuel,Unknown,28.6517715,77.2682607
fuel,IGL,28.5721052,77.1375135
fuel,Unknown,28.6870339,76.9948628
fuel,Unknown,28.3099979,77.5010898
fuel,Unknown,28.4174044,77.0415645
fuel,Unknown,28.4175397,77.0420039
fuel,Unknown,28.4180943,77.0426565
fuel,Bharat Petroleum,28.6288906,77.2102190
fuel,Bharat Petroleum,28.5576870,77.2064020
fuel,IBP Petrol Pump,28.4557901,77.0463322
fuel,Unknown,28.4578288,77.0467775
fuel,Unknown,28.5699619,77.1964421
fuel,Indian Oil,28.7231915,77.8529794
fuel,Indian Oil,28.7055418,77.7820522
fuel,Unknown,28.6896904,77.1351273
fuel,IOCL Sadiq nagar,28.5552682,77.2284238
fuel,Unknown,29.6564046,76.9865836
fuel,Unknown,29.4959576,76.9718091
fuel,CNG Pump,28.5584543,77.1067343
fuel,Indian Oil Corp petrol bunk,28.6292275,77.3214599
fuel,Bharat Petrolium,28.4627177,77.5065201
fuel,CNG Fuel Station,28.5906402,77.0369101
fuel,Unknown,28.5774720,77.0533799
fuel,Unknown,28.5928726,77.0429664
fuel,Unknown,28.1478934,77.5732926
fuel,Unknown,28.3753981,76.9548459
fuel,Unknown,28.2932730,76.8655480
fuel,Unknown,28.0674881,76.5502331
fuel,essar,28.0584628,76.5384517
fuel,Unknown,28.0556472,76.5338428
fuel,Unknown,28.0689291,76.5556238
fuel,Unknown,28.0625084,76.5443137
fuel,Unknown,28.0468933,76.5193266
fuel,Unknown,28.0410425,76.5149066
fuel,IGL,28.6723785,77.1529427
fuel,Indian oil,28.6737578,77.1431280
fuel,Unknown,28.4964552,77.4864987
fuel,Unknown,28.4236760,77.8046430
fuel,Unknown,28.2079360,77.1895450
fuel,Unknown,28.2009198,77.2185148
fuel,Unknown,28.4496992,77.1840092
fuel,Unknown,28.0910312,77.3966559
fuel,Unknown,28.1949511,77.2336645
fuel,Unknown,28.1632207,77.2848436
fuel,Unknown,28.0407293,77.4535642
fuel,Unknown,28.5385446,77.1326402
fuel,Bharat Petroleum,28.6043402,77.2244859
fuel,Unknown,28.5558238,77.0543873
fuel,Unknown,29.0426976,77.7946428
fuel,Unknown,28.7098190,77.4553646
fuel,Bharat Petroleum pump,28.6474139,77.3785236
fuel,Unknown,28.7604220,77.9808632
fuel,Petrol pump,28.7359418,77.1281505
fuel,BPCL PETROL PUMP(shankar filling station),28.6672719,77.1192683
fuel,IGL,28.6630382,77.1296588
fuel,Bharat Petroleum,28.5621742,77.2318251
fuel,Indian Oil,28.5870134,77.2413569
fuel,Indian Oil,28.5490489,77.1882027
fuel,IGL,28.5532352,77.1804718
fuel,Bharat Petroleum,28.5804633,77.1793308
fuel,Hindustan Petroleum,28.6318815,77.2215358
fuel,Unknown,28.5592774,77.2320193
fuel,Indian Oil,28.5421697,77.2215027
fuel,Bharat Petroleum,28.5422015,77.2210128
fuel,Indian Oil,28.5534953,77.2118715
fuel,Bharat Petroleum,28.5745515,77.2378394
fuel,Qutub Service Station,28.5345090,77.1964126
fuel,Bharat Petroleum,28.5279296,77.1899028
fuel,Unknown,28.5380314,77.2325592
fuel,Bharat Petroleum,28.6245260,77.2188215
fuel,Indian Oil,28.6264672,77.2199591
fuel,Bharat Petroleum,28.7393538,77.1182573
fuel,Essar PETROL PUMP,28.3861754,77.3631000
fuel,Unknown,28.6128656,77.3089366
fuel,HP,28.5913816,77.2120833
fuel,Indian Oil,28.5843665,77.1721419
fuel,Indian Oil,28.5869597,77.2121034
fuel,Indian Oil,28.5873310,77.1714396
fuel,Indian Oil,28.5478307,77.2557271
fuel,Indraprastha Gas Station,28.5675278,77.1756357
fuel,Unknown,28.5672457,77.1887488
fuel,Indian Oil,29.2298498,77.0153734
fuel,Indian Oil,28.5277738,77.2157222
fuel,Adani CNG station,28.4007547,77.3742263
fuel,Unknown,28.5259072,77.1903825
fuel,HP,28.5567847,77.2069437
motorcycle_parking,Unknown,28.6215670,77.0918973
motorcycle_parking,IIT - Kumaon,28.5493440,77.1849520
motorcycle_parking,IIT - Zanskar,28.5469796,77.1858606
motorcycle_parking,Bharti School,28.5454141,77.1885982
motorcycle_parking,Unknown,28.4479720,77.0300540
parking,Unknown,28.4975660,77.0635343
parking,Unknown,28.4962233,77.0622640
parking,Unknown,28.4947599,77.0610023
parking,Sulpantpur Lake Parking,28.4680471,76.8919788
parking,DumDuma Lake Parking,28.2994923,77.1279583
parking,Unknown,28.2449180,77.0638017
parking,Unknown,28.4676152,76.8903581
parking,Unknown,28.4591620,77.0764294
parking,Unknown,28.4700706,77.0453033
parking,Unknown,28.5499028,77.1849927
parking,Unknown,28.5442740,77.1929820
parking,Unknown,28.4481945,77.0292685
parking,Unknown,28.4482254,77.0311706
parking,Unknown,28.4496234,77.0280742
parking,Unknown,28.4613947,77.0330393
parking,Unknown,28.5100391,77.1674675
parking,Unknown,28.5079122,77.1664890
parking,Unknown,28.5389671,77.1529192
parking,Sector-14 Market,28.4737292,77.0478919
parking,Unknown,28.4443978,77.0598968
parking,TBS Parking,28.5980600,77.1809515
parking,Unknown,28.6331083,77.3707743
parking,Unknown,28.6330895,77.3711713
parking,Unknown,28.4420322,77.0557649
parking,Unknown,28.4534730,77.0744768
parking,Unknown,28.4536180,77.0743814
parking,Unknown,28.6669732,77.2267137
parking,Unknown,28.4674053,77.0806089
parking,Unknown,28.5242332,77.2078377
parking,Unknown,28.5492361,77.2500411
parking,Unknown,28.5733480,77.0647890
parking,Unknown,28.6324431,77.2212149
parking,Unknown,28.6318154,77.2207988
parking,Unknown,28.6315799,77.2204126
parking,Unknown,28.6337740,77.2186316
parking,Unknown,28.6340848,77.2195757
parking,Parliament Visitor Parking,28.6162015,77.2100168
parking,Palika Bhawan,28.5710889,77.1845461
parking,USO parking,28.5422971,77.1785053
parking,Unknown,28.5422691,77.1777912
parking,Sector 15 Metro parking,28.5853100,77.3107600
parking,Unknown,28.6235519,77.0921552
parking,Unknown,28.6498300,77.1225041
parking,Unknown,28.6504701,77.1218979
parking,Sports Complex Car Parking,28.6312077,77.1146436
parking,Unknown,28.4667261,77.0817341
parking,DSUI Parking,28.5947727,77.1621077
parking,Unknown,28.3670647,77.3154120
parking,Unknown,28.3831287,77.3278384
parking,Unknown,28.3688397,77.3366614
parking,car parking metro,28.6954495,77.2157011
parking,Unknown,28.4650005,77.0709660
parking,Unknown,28.5947706,77.0215619
parking,Unknown,28.4428333,77.0661139
parking,Unknown,28.4433408,77.0666244
parking,Unknown,28.4477972,77.0388138
parking,Durga palace,28.6921215,77.1776418
parking,Unknown,28.4459484,77.0442318
parking,Unknown,28.5471853,77.2712648
parking,Car & Bus Parking,28.5980881,77.2982295
parking,DCE Parking,28.7485229,77.1165241
parking,DCE Car Parking,28.7483182,77.1172340
parking,DCE Car Parking,28.7483562,77.1179452
parking,DCE Car Parking,28.7486961,77.1187531
parking,Unknown,28.7114304,77.2164361
parking,Batra Car Parking,28.7117786,77.2153203
parking,Unknown,28.7104518,77.2151004
parking,Unknown,28.5251484,77.2560935
parking,Unknown,28.5283990,77.2496396
parking,Unknown,28.5328813,77.2416993
parking,Unknown,28.5324136,77.2423782
parking,Unknown,28.5328121,77.2431387
parking,Unknown,28.5325472,77.2427666
parking,Unknown,28.5332678,77.2428508
parking,Unknown,28.5332630,77.2419003
parking,Unknown,28.5335422,77.2423049
parking,Unknown,28.5398871,77.2343582
parking,Unknown,28.5241766,77.2532343
parking,Unknown,28.4441907,77.0562098
parking,Ansals plaza underground car parking,28.5114891,77.0418352
parking,Ansals Plaza above ground car parking,28.5113010,77.0423891
parking,HUDA sector 23 parking,28.5107738,77.0486395
parking,Unknown,28.5553079,77.2543585
parking,Unknown,28.5816270,77.2601243
parking,Unknown,28.5801846,77.2576397
parking,Unknown,28.1188068,77.5753163
parking,Unknown,28.4569382,77.0483485
parking,Unknown,28.4139599,77.0712523
parking,Unknown,28.5890367,77.3420509
parking,Unknown,28.6312911,77.2214543
parking,Unknown,28.7092071,77.1226732
parking,Unknown,28.4584324,77.0340437
parking,Unknown,28.4581486,77.0328700
parking,Unknown,28.4572695,77.0335047
parking,Unknown,28.4573996,77.0339590
parking,Unknown,28.6273340,77.3747993
parking,Unknown,28.4341557,76.9966376
parking,Unknown,28.6981247,77.1095360
parking,Unknown,28.6991616,77.1144775
parking,Unknown,28.6989949,77.1143756
parking,Unknown,28.6991444,77.1148635
parking,Unknown,28.6953588,77.1181277
parking,Unknown,28.6954734,77.1182997
parking,Unknown,27.8951854,78.0733033
parking,Unknown,28.6374859,77.2873053
parking,Unknown,28.6243086,77.2151522
parking,Unknown,28.5903085,77.2200626
parking,Tulip Car Parking,28.3941404,77.0333940
parking,Unknown,29.0683214,77.0610410
parking,Unknown,28.7391120,77.1392908
parking,Unknown,28.4159650,77.3538576
parking,Unknown,28.6120847,77.0379976
parking,Parallel parking,28.6316100,77.2789850
parking,Unknown,28.6675807,77.3667834
parking,Unknown,28.6662422,77.3667816
parking,Unknown,28.6720339,77.4139870
parking,Unknown,28.7253609,77.4714576
parking,Unknown,28.7284023,77.4717048
parking,Unknown,28.7274983,77.4730176
parking,Unknown,28.6988445,77.4459504
parking,Unknown,28.7004725,77.4458659
parking,Unknown,28.6515362,77.4281530
parking,Unknown,28.4168691,77.0359833
parking,Unknown,28.4161248,77.0375510
parking,Unknown,28.4164657,77.0386434
parking,Unknown,28.6200263,77.2417091
parking,Auto Heaven Garage,28.5157985,77.1061471
parking,Unknown,28.4796087,77.2889430
parking,Unknown,28.5130365,77.2655989
parking,Unknown,28.6297334,77.2629485
parking,Unknown,28.4480133,77.5179162
parking,Staff Parking,28.8811195,76.6054701
parking,OPD Public parking,28.8835741,76.6070429
parking_entrance,Unknown,28.4137157,77.0692447
parking_entrance,Unknown,28.4331697,77.1508167
parking_entrance,Unknown,28.5866354,77.4049896
parking_entrance,Unknown,28.5246437,77.5737149
parking_entrance,Unknown,28.4150556,77.0690860
parking_entrance,Parking Entry,28.4587322,77.0712975
parking_entrance,Parking Exit,28.4588031,77.0712046
parking_entrance,Unknown,28.5243994,77.5746796
parking_entrance,Unknown,28.6142646,77.2452503
parking_entrance,Unknown,28.6142256,77.2453371
parking_entrance,Unknown,28.6181615,77.2421721
parking_entrance,Unknown,28.6181050,77.2421104
parking_entrance,Unknown,28.6170572,77.2429821
parking_entrance,Unknown,28.6171185,77.2430384
parking_entrance,Unknown,28.3693406,77.5506234
parking_entrance,Unknown,28.3693028,77.5513905
parking_entrance,Unknown,28.3683447,77.5500950
parking_entrance,Unknown,28.7171016,77.1137504
parking_entrance,Unknown,28.5245566,77.5738429
parking_entrance,Unknown,28.5319970,77.3793166
parking_entrance,Unknown,28.5861669,77.4033929
parking_entrance,Unknown,28.5871219,77.4047273
parking_entrance,Unknown,28.6316450,77.2277391
parking_entrance,Unknown,28.4198207,77.0388274
parking_entrance,Unknown,28.4196474,77.0388827
parking_entrance,Unknown,28.5590260,77.0657739
parking_entrance,Unknown,28.5606808,77.0679753
parking_entrance,Unknown,28.4150377,77.0693704
parking_entrance,Unknown,28.4138572,77.0700277
parking_entrance,Unknown,28.4442887,77.4682723
parking_entrance,Unknown,28.4441957,77.4680822
parking_entrance,Unknown,28.4439123,77.4673822
parking_entrance,Unknown,28.4440413,77.4675513
parking_entrance,Unknown,28.4436414,77.4669059
parking_entrance,Unknown,28.4434768,77.4667890
parking_entrance,Unknown,28.4431117,77.4664038
parking_entrance,Unknown,28.4429251,77.4663298
parking_entrance,Unknown,28.4444803,77.4636267
parking_entrance,Unknown,28.4443769,77.4634384
parking_entrance,Unknown,28.4448303,77.4642767
parking_entrance,Unknown,28.4446936,77.4641478
parking_entrance,Unknown,28.4453339,77.4648210
parking_entrance,Unknown,28.4451327,77.4646866
parking_entrance,Unknown,28.4459244,77.4651737
parking_entrance,Unknown,28.4457213,77.4651345
parking_entrance,Unknown,28.4465783,77.4666418
parking_entrance,Unknown,28.4467285,77.4664604
parking_entrance,Unknown,28.5089074,77.0701767
parking_entrance,Unknown,28.5312123,77.3797349
parking_entrance,Unknown,28.5310871,77.3806023
parking_entrance,Unknown,28.5139942,77.3913666
parking_entrance,Unknown,28.5130584,77.3928506
parking_entrance,Unknown,28.4457923,77.4675945
parking_entrance,Unknown,28.4457507,77.4678121
parking_space,Unknown,28.5446677,77.2715114
parking_space,Unknown,28.5488563,77.2713926
parking_space,Unknown,28.5457457,77.2728773
parking_space,Unknown,28.5474784,77.2741435
parking_space,Unknown,28.4589689,77.0345320
parking_space,Unknown,28.6664394,77.3042422
parking_space,Unknown,28.6666281,77.3032755
parking_space,Unknown,28.6757063,77.3090644
parking_space,Unknown,28.6693162,77.3122192
parking_space,Unknown,28.6682719,77.3122626
parking_space,Unknown,28.6929211,77.1694291
taxi,Unknown,28.4632736,77.0335113
taxi,Unknown,28.5465578,77.2437865
taxi,Unknown,28.4768148,77.0718980
taxi,Unknown,28.6126819,76.9861953
taxi,Allied Car Rental Taxi Stand,28.5899699,77.2157990
taxi,Unknown,28.4615803,77.0322628
taxi,Taxi Stand,28.5973803,77.2951066
taxi,Unknown,28.6040808,77.2348035
taxi,Unknown,28.6033233,77.2335957
taxi,Unknown,28.6007521,77.2287256
taxi,Unknown,28.6019301,77.2306045
taxi,Unknown,28.6604974,77.2271618
taxi,Barahi Auto Stop,28.7328949,76.8940370
taxi,K.D. Taxi Service,28.6025350,77.1867380
taxi,Dhanoa Tourist Taxi Service,28.6021703,77.1871411
taxi,Syndicate Taxi Services,28.6110368,77.2858863
taxi,Swami Taxi Service,28.5658314,77.1666541
taxi,Yadav Taxi Services,28.5747681,77.1681210
taxi,Unknown,28.5656213,77.2362927
taxi,prepaid taxi,28.5565464,77.0856317
taxi,Capital Taxi Service,28.5856787,77.2135638
taxi,Avon Tourist Taxi Service,28.6262475,77.2074638
taxi,Amar Tourist Taxi Service,28.5243050,77.2066746
taxi,Unknown,28.5392580,77.1987769
taxi,General Taxi Stand,28.5690541,77.1645220
taxi,Western Court Taxi Service,28.6247552,77.2190510
taxi,Unknown,28.5895400,77.2198817
taxi,General Taxi Stand,28.5268254,77.2217689
taxi,General Taxi Stand,28.6204654,77.3044469
taxi,Unknown,28.5687889,77.2400968
taxi,Atlas Chowk E-Rickshaw Stand,28.4909177,77.0808752
taxi,Udyog Vihar Phase 4 E-Rickshaw Stand,28.4946992,77.0809280
taxi,Jwala Mill Marg E-Rickshaw Stand,28.4959884,77.0855679
taxi,DLF Square,28.4901420,77.0828864
taxi,DLF Square,28.4907204,77.0842446
taxi,Auto Rickshaw Stand,28.5256449,77.2361644
taxi,Unknown,28.6229390,77.1971549
atm,HSBC Bank,28.4740435,77.0474903
atm,HDFC Bank,28.4740963,77.0475761
atm,AXIS Bank,28.5101062,77.1682153
atm,Citi Bank,28.4767072,77.0633541
atm,ICICI Bank,28.4109126,77.0430770
atm,Unknown,28.4717609,77.1019571
atm,State Bank of India,28.4741534,77.0477290
atm,HDFC Bank,28.4557573,77.0384039
atm,State Bank of India,28.4560738,77.0382109
atm,Unknown,28.4748625,77.0706974
atm,CitiBank,28.5815718,77.3240838
atm,Citibank,28.5815491,77.3241524
atm,HDFC Bank,28.5765403,77.3351059
atm,ICICI Bank,28.5764197,77.3350801
atm,ICICI Bank,28.6458869,77.1723786
atm,Unknown,28.5691433,77.2193166
atm,Unknown,28.4529381,77.0507109
atm,Unknown,28.4941065,77.0933270
atm,Citibank,28.4937082,77.0930212
atm,Kotak Mahindra Bank,28.4935980,77.0929044
atm,Unknown,28.4716570,77.1026485
atm,Unknown,28.4949800,77.1033552
atm,Unknown,28.8753116,77.1206341
atm,Unknown,29.2658879,77.7294242
atm,Axis Bank,28.4796183,77.0866532
atm,Unknown,28.3657726,76.9345149
atm,Indian Bank,28.5403687,77.1847626
atm,Unknown,28.5684348,77.2171793
atm,Unknown,28.5683654,77.2186625
atm,Unknown,28.4387396,77.0052866
atm,Unknown,28.4616667,77.0241460
atm,Unknown,28.6368670,77.0934463
atm,Punjab Bank,28.6367050,77.0965516
atm,HDFC Bank,28.6365657,77.0973217
atm,Unknown,28.6460886,77.2070915
atm,Unknown,28.5099957,77.1682199
atm,HDFC Bank,28.5098513,77.1682149
atm,Unknown,28.5203641,77.2059863
atm,Unknown,28.5232994,77.2071199
atm,Unknown,28.6630585,77.2206204
atm,HDFC Bank,28.6345525,77.2176037
atm,State Bank of India,29.1310124,76.3996849
atm,Punjab National Bank,28.1941563,76.6209292
atm,Unknown,28.9762968,77.7322712
atm,Unknown,28.9637674,77.7412956
atm,Unknown,28.9632323,77.7409522
atm,Bank of Baroda ATM,28.6183692,77.2865244
atm,ICICI Bank ATM,28.6183527,77.2865333
atm,Unknown,28.6132380,77.2896502
atm,ICICI Bank,28.5874820,77.3126880
atm,Unknown,28.6436143,77.3262336
atm,Unknown,28.4516306,77.0749768
atm,Unknown,28.4516536,77.0749759
atm,Standard Chartered,28.4675617,77.0815273
atm,RBS,28.4625378,77.0869209
atm,Punjab National Bank,28.4777540,77.0726000
atm,Unknown,28.4175640,77.0564000
atm,HDFC,28.4572283,77.0633490
atm,ICICI,28.4568866,77.0633617
atm,Axis Bank,28.4571018,77.0633534
atm,Citi Bank,28.4569906,77.0633723
atm,Unknown,28.6608921,77.2790244
atm,Unknown,28.5045702,77.0971354
atm,Unknown,28.5560688,77.0846576
atm,Unknown,28.4526131,77.0505014
atm,Unknown,28.6642320,77.3235790
atm,Unknown,28.6687600,77.3310570
atm,Unknown,28.5938906,77.0779780
atm,Unknown,28.5948825,77.0214331
atm,Standard Chartered,28.4172356,77.0505943
atm,Axis Bank,28.5361818,77.2492056
atm,Unknown,28.5265729,77.2528542
atm,SBI Bank,28.6127990,76.9864054
atm,Unknown,28.6126342,76.9878833
atm,Axis Bank,28.6136137,76.9856919
atm,Punjab National Bank,28.6089326,76.9849623
atm,State Bank of India,28.6064404,76.9861241
atm,Punjab & Sind Bank,28.6065605,76.9860677
atm,HDFC,28.6096487,76.9825246
atm,Axis,28.6095168,76.9827982
atm,ICICI,28.6095686,76.9826587
atm,Punjab National Bank,28.4694364,77.0625740
atm,Unknown,28.5960809,77.0408019
atm,Unknown,28.6168137,77.2256080
atm,Unknown,28.5293220,77.0867293
atm,Unknown,28.5815824,77.3611151
atm,Unknown,28.5838741,77.3606402
atm,Unknown,28.5839095,77.3605409
atm,Unknown,28.5838153,77.3606777
atm,Unknown,28.4775402,77.1294958
atm,Unknown,28.5954785,77.3625747
atm,Unknown,28.6664370,77.2316333
atm,ICICI ATM,28.5967437,77.3376025
atm,Unknown,28.5690899,77.3620452
atm,Unknown,28.5654150,77.3596741
atm,Unknown,28.5688731,77.3576786
atm,Unknown,28.6306580,77.4356695
atm,Yes Bank,28.6272942,77.2195527
atm,Central Bank of India,28.6278063,77.2195823
atm,ICICI Bank,28.6286284,77.2197267
atm,Unknown,28.4249884,77.0992852
atm,Unknown,28.4252244,77.0992377
atm,Unknown,28.5646484,77.0544612
atm,State Bank of India,28.6261056,77.2197715
atm,Unknown,28.6356162,77.1855851
atm,ICICI Bank,28.4745865,77.0707110
atm,Unknown,28.6411780,77.2106033
atm,Citibank atm,28.5499509,77.2362568
atm,Unknown,28.9583780,77.7587170
atm,Unknown,28.5216669,77.2062192
atm,Unknown,28.5311318,77.2185038
atm,SBI,28.5381741,77.1934888
atm,ICICI,28.5381856,77.1934236
atm,Yes Bank,28.6413641,77.2152163
atm,Axis Bank ATM,28.6770863,77.3696032
atm,State Bank of India ATM,28.6742930,77.3648986
atm,Citi Bank ATM,28.6565694,77.2319328
atm,Kotak Bank ATM,28.6565435,77.2319301
atm,ICICI Bank ATM,28.6559387,77.2352453
atm,AXIS Bank,28.6412802,77.2147522
atm,HDFC,28.6017433,77.2413799
atm,Standard Chartered,28.6012973,77.2408638
atm,Unknown,28.7055816,77.2119768
atm,PNB ATM,28.5261929,77.5757933
atm,ICICI Bank,28.5672661,77.3351132
atm,HDFC Bank,28.5674609,77.3348913
atm,HDFC Bank,28.5711166,77.3331690
atm,SBI,28.5423944,77.1468543
atm,Kotak,28.5366824,77.1480219
atm,ICICI,28.5332679,77.1519572
atm,Unknown,28.6787342,77.2066236
atm,state bank,28.4746801,77.0094180
atm,Unknown,28.4013635,77.0485867
atm,Unknown,28.4013948,77.0486618
atm,Unknown,28.6316863,77.2166292
atm,Kotak Mahindra Bank,28.6311221,77.2164451
atm,Unknown,28.6294413,77.2128740
atm,Unknown,28.1024350,76.2481294
atm,Unknown,28.1023639,76.2480029
atm,Unknown,28.1023519,76.2479729
atm,Unknown,28.5746051,77.1980051
atm,Unknown,28.5696397,77.1950523
atm,Unknown,28.5726861,77.1973549
atm,Unknown,28.5750232,77.1980129
atm,Unknown,28.6023780,77.0643097
atm,Unknown,28.5607706,77.2311301
atm,Unknown,28.6443210,77.2151897
atm,Unknown,28.5829447,77.0514424
atm,Axis Bank,28.4489464,77.0570273
atm,State Bank of India,28.4492160,77.0566378
atm,Unknown,28.6453308,77.2117460
atm,Unknown,28.6147184,77.3480647
atm,Unknown,28.6135345,77.2184328
atm,axix bank ATM,28.6327160,77.0320047
atm,Unknown,28.6804000,77.2058387
atm,Unknown,28.6576906,77.2083250
atm,Home,28.5385875,77.1242522
atm,Unknown,28.6280964,77.3085926
atm,Unknown,28.4808942,77.4992189
atm,Unknown,28.4809526,77.4995890
atm,Unknown,28.6224974,77.0582992
atm,Unknown,28.6883534,77.1216542
atm,Unknown,28.6927852,77.2633242
atm,Unknown,28.5533046,77.0851809
atm,Unknown,28.5084236,77.2510098
atm,Unknown,28.6437322,77.2095729
atm,Unknown,28.7029327,77.0997134
atm,Unknown,28.7029518,77.0997615
atm,Unknown,28.7057871,77.1022914
atm,Unknown,28.5403996,77.1858643
atm,Unknown,28.5493889,77.1809133
atm,Unknown,28.4700186,77.4956399
atm,Unknown,28.6444573,77.0348741
atm,Unknown,28.9588382,77.1054098
atm,Unknown,28.6472040,77.1420464
atm,Unknown,28.6220992,77.0567573
atm,Unknown,28.6441975,77.2418175
atm,Unknown,28.1399510,77.3267200
atm,Unknown,28.4302171,77.2261300
atm,Unknown,28.5406103,77.1853088
atm,Unknown,28.7059612,77.2817747
atm,Oriental Bank of Commerce,28.5432647,77.1285737
atm,Axis Bank,28.5441966,77.1282620
atm,Unknown,28.6246459,77.2053756
atm,Unknown,28.6933542,77.1517534
atm,State Bank of India,28.5367606,77.2106820
atm,Unknown,28.6707258,77.2841890
atm,Unknown,28.5380689,77.2615535
atm,Unknown,28.6425769,77.2193166
atm,Unknown,28.6425338,77.2193198
atm,Unknown,28.6176795,77.2794765
atm,Unknown,28.5527397,77.2077982
atm,State Bank of India,28.5546315,77.1775233
atm,Unknown,28.4513230,77.0817663
atm,Unknown,28.6712448,77.2804943
atm,Unknown,28.6714431,77.2815699
atm,IndiCash ATM,28.5473981,77.1838262
atm,State Bank of India,28.5457285,77.1832177
atm,Unknown,28.5404595,77.2347299
atm,Unknown,28.5438862,77.2299961
atm,Unknown,28.3571360,77.2935643
atm,Unknown,28.3585994,77.2935526
atm,HDFC Bank,28.6565174,77.2246065
atm,Unknown,28.5790267,77.1484430
atm,Unknown,28.5738264,77.0945132
atm,Unknown,28.5748893,77.0877023
atm,Unknown,28.5774648,77.0926199
atm,Unknown,28.5782606,77.0999242
atm,Unknown,28.5823112,77.0896550
atm,Unknown,28.5823436,77.0894826
atm,Unknown,28.5845091,77.0908069
atm,Unknown,28.5857538,77.0883753
atm,Unknown,28.5861864,77.0876987
atm,Unknown,28.5861960,77.0876812
atm,Unknown,28.5833403,77.0874593
atm,Unknown,28.5835005,77.0873761
atm,Unknown,28.5857481,77.0836076
atm,Unknown,28.5863009,77.0821383
atm,Unknown,28.5872250,77.0753099
atm,Oriental Bank of Commerce,28.5754277,77.1235203
atm,Unknown,28.4346987,77.1063815
atm,Unknown,28.5617871,77.2407596
atm,Unknown,28.5707216,77.2366313
atm,Unknown,28.5637919,77.2340700
atm,Unknown,28.5637613,77.2340922
atm,Unknown,28.4347984,77.1063656
atm,Unknown,28.4359234,77.1116254
atm,DigiBank,28.5456863,77.2296068
atm,Unknown,28.6117699,77.2870514
atm,Unknown,28.6117301,77.2870607
atm,Unknown,28.6117168,77.2870733
atm,Unknown,28.6118194,77.2888276
atm,Unknown,28.6118302,77.2888244
atm,Unknown,28.5531666,77.2424085
atm,Unknown,28.5437163,77.2071347
atm,Unknown,28.5437629,77.2085475
atm,Unknown,28.5181909,77.2062308
atm,Unknown,28.6248302,77.2029725
atm,Unknown,28.6249115,77.2010875
atm,Unknown,28.6292586,77.2326727
atm,Unknown,28.7396141,77.1233459
atm,Canara Bank,28.5652278,77.1671988
atm,Kotak Mahindra Bank,28.5650324,77.1672942
atm,Yes Bank,28.5649944,77.1673028
atm,Andhra Bank,28.5651928,77.1674642
atm,Unknown,28.6215414,77.2192588
atm,Axis Bank,28.6236459,77.2193948
atm,Bank of Baroda,28.6289800,77.2173598
atm,Unknown,28.6325492,77.2080312
atm,Unknown,28.7342137,77.1242988
atm,Unknown,28.7343445,77.1241508
atm,Unknown,28.4637038,77.0649977
atm,Unknown,28.5180183,77.2034517
atm,Unknown,28.6395859,77.3745928
atm,Unknown,28.4672161,77.0824555
atm,Unknown,28.6685270,77.3295960
atm,Unknown,28.6685480,77.3295790
atm,Unknown,28.6688870,77.3300480
atm,Unknown,28.5337870,77.2311026
atm,Unknown,28.5169615,77.2271789
atm,Unknown,28.5165610,77.2272104
atm,Unknown,28.5167524,77.2271259
atm,Unknown,28.5292556,77.2726466
atm,Unknown,28.5338478,77.2313863
atm,ICICI Bank,28.6325327,77.2179816
atm,Unknown,28.5485292,77.2529251
atm,Unknown,28.5370189,77.2101594
atm,Unknown,28.5380761,77.1981590
atm,Unknown,28.5339630,77.0899037
atm,Unknown,28.5182748,77.2152203
atm,Unknown,28.5265864,77.2058877
atm,Unknown,28.5252369,77.2158884
atm,Oriental Bank of Commerce,28.6317679,77.2220318
atm,Unknown,28.5351737,77.2105270
atm,Unknown,28.5024032,77.2826168
atm,Unknown,28.4959778,77.3032210
atm,Unknown,28.5069714,77.1998643
atm,Unknown,28.5069889,77.1998711
atm,Unknown,28.5069298,77.1998461
atm,Unknown,28.8965890,76.5959149
atm,Unknown,28.8959522,76.6021086
atm,Unknown,28.8957503,76.6105652
atm,Unknown,28.8957515,76.6105411
atm,Unknown,29.0482979,77.0667902
atm,Unknown,28.5510924,77.2044909
atm,Unknown,28.5704442,77.2362899
atm,Unknown,28.5721101,77.2375289
atm,Unknown,28.5256595,77.2613805
atm,Unknown,28.5141173,77.2327466
atm,Unknown,28.5484958,77.2370154
atm,Unknown,28.5854250,77.2121784
atm,Standard Chartered,28.6329277,77.2173766
atm,Unknown,28.5203162,77.2025018
atm,Unknown,28.5466499,77.2508159
atm,Unknown,28.5477352,77.2510170
atm,Unknown,28.5474798,77.2511546
atm,Unknown,28.5222089,77.2149563
atm,State Bank of India,28.6297028,77.2171284
atm,Unknown,28.5215806,77.2061835
atm,Unknown,28.5214032,77.2061288
atm,Unknown,28.6162241,77.2879776
atm,Unknown,28.6132396,77.2897368
atm,Unknown,28.6241236,77.3014349
atm,Unknown,28.6294048,77.2774727
atm,Unknown,28.6295330,77.2773928
atm,Bank of Baroda,28.6343883,77.2183155
atm,Union Bank of India,28.6477737,77.1839471
atm,Unknown,28.6417080,77.2048736
atm,Kotak Mahindra Bank,28.6499529,77.1832307
atm,Axis Bank,28.6499265,77.1832978
atm,Unknown,28.6125116,77.1100044
atm,Unknown,28.5353044,77.2106819
atm,Unknown,28.5347995,77.2101576
atm,Unknown,28.5215529,77.2160961
atm,Unknown,28.5220531,77.2155672
atm,Unknown,28.5212727,77.2060850
atm,Unknown,28.5209123,77.2059981
atm,Unknown,28.6311479,77.0910709
atm,State Bank of India,28.6333173,77.0899456
atm,City Union Bank,28.6335430,77.0898571
atm,State Bank of India,28.6682825,77.1373251
atm,ICICI Bank,28.7017784,77.2277537
atm,Unknown,28.5189235,77.2067649
atm,Syndicate Bank,28.5684294,77.1870021
atm,Union Bank of India,28.5712997,77.1842925
atm,Unknown,28.5329875,77.2183321
atm,Unknown,28.5309296,77.2172921
atm,ICICI Bank,28.5355875,77.2167704
atm,Indicash,28.5329310,77.2183210
atm,Unknown,28.5329514,77.2183666
atm,Unknown,28.5347536,77.2168822
atm,Unknown,28.5621612,77.2449818
atm,Unknown,28.6018694,77.1847489
atm,Unknown,28.6440795,77.2010334
atm,Unknown,28.5743301,77.2415223
atm,Unknown,28.5341404,77.2068609
atm,Unknown,28.5529254,77.1221459
atm,Unknown,28.5533320,77.1234630
atm,Unknown,28.5513076,77.1227004
atm,Unknown,28.5429566,77.1286516
atm,Unknown,28.5450651,77.1277894
atm,Unknown,28.5440893,77.1283049
atm,Unknown,28.6021934,77.2371123
atm,Unknown,28.5549520,77.0857197
atm,Unknown,28.5678663,77.2473020
atm,Unknown,28.5479351,77.2560220
atm,Unknown,28.5164119,77.2247295
atm,Unknown,28.5498682,77.2508584
atm,Unknown,28.5336588,77.2596485
atm,Unknown,28.5513298,77.2514471
atm,Unknown,28.5376883,77.2611710
atm,Unknown,28.5422141,77.2530021
atm,Unknown,28.5505274,77.2044123
atm,Unknown,28.5562264,77.2060799
atm,Unknown,28.5197606,77.2050158
atm,Unknown,28.5325585,77.2032707
atm,Unknown,28.5210402,77.2060542
atm,Unknown,28.5236422,77.2068967
atm,Unknown,28.5212087,77.2061070
atm,Unknown,28.5355239,77.2109777
atm,Yes Bank,28.6352021,77.2184123
atm,Punjab & Sind Bank,28.6353937,77.2196262
atm,Canara Bank,28.6352636,77.2186749
atm,IndusInd Bank,28.6352382,77.2184770
atm,Unknown,28.5774936,77.2381378
atm,State Bank of India,28.6331482,77.2197969
atm,Unknown,28.5755951,77.2093571
atm,Bank of Baroda,28.4392741,77.0342351
atm,Unknown,28.6520416,77.1566174
atm,Unknown,28.6280232,77.1367988
atm,ICICI Bank,28.6254248,77.1109641
atm,Unknown,28.6483737,77.1633494
atm,Unknown,28.6447452,77.2427346
atm,Unknown,28.6224226,77.1360256
atm,Unknown,28.5677385,77.2244999
atm,Unknown,28.5327426,77.2036200
atm,Unknown,28.5421614,77.2542059
atm,Oriental Bank of Commerce,28.6328740,77.2220034
atm,Unknown,28.6412994,77.2153020
atm,Unknown,28.6293002,77.2319976
atm,Unknown,28.6293094,77.2324670
atm,Unknown,28.5224201,77.2079718
atm,Unknown,28.5235881,77.2083757
atm,Unknown,28.5386154,77.2118608
atm,Unknown,28.5406895,77.1851493
atm,Unknown,28.5031493,77.2805611
atm,Unknown,28.5616402,77.2538478
atm,Unknown,28.5356479,77.2676022
atm,Unknown,28.5440559,77.2513524
atm,Unknown,28.6387911,77.3648201
atm,Unknown,28.6387890,77.3650632
atm,Unknown,28.6374856,77.3694642
atm,Unknown,28.6388150,77.3653779
atm,Housing Development Finance Corporation,28.5649455,77.2467800
atm,Unknown,28.5691541,77.2051064
atm,Unknown,28.5068891,77.1998695
atm,State Bank of India,28.5686876,77.2443379
atm,Unknown,28.6228871,77.2118773
atm,Unknown,28.6107735,77.2142744
atm,Unknown,28.6128704,77.3230587
atm,Unknown,28.6090206,77.3201408
atm,Unknown,28.5513144,77.2516633
atm,Unknown,28.6847189,77.2897575
atm,Unknown,28.5405443,77.1856150
atm,Unknown,28.5001600,77.1843060
atm,Unknown,28.5001810,77.1842797
atm,Unknown,28.5481958,77.2412278
atm,Unknown,28.6498482,77.0416046
atm,Unknown,28.6979347,77.2063552
atm,Unknown,28.6985970,77.2054700
atm,Unknown,28.6989193,77.2053774
atm,Unknown,28.4919048,77.0937804
atm,Unknown,28.5274778,77.2572280
atm,Unknown,28.5275059,77.2572345
atm,Unknown,28.5137120,77.2344806
atm,Unknown,28.5137441,77.2342597
atm,Unknown,28.6175605,77.2125512
atm,Unknown,28.6040114,77.1976751
atm,Unknown,28.5609196,77.2815802
atm,Unknown,28.5008909,77.3015445
atm,Unknown,28.5247002,77.2369691
